$GPGGA,000000,5536.9726,N,03806.9,E,1,5,1.5,280.05823,-29.350473,,*5E
$GPGGA,000001,5536.9734,N,03806.8965,E,1,5,1.5,283.43129,-30.375105,,*6E
$GPGGA,000002,5536.9741,N,03806.9031,E,1,5,1.5,276.45716,-29.870199,,*63
$GPGGA,000003,5536.9749,N,03806.894,E,1,5,1.5,281.84553,-29.107559,,*53
$GPGGA,000004,5536.9756,N,03806.898,E,1,5,1.5,275.932,-30.596934,,*59
$GPGGA,000005,5536.9764,N,03806.902,E,1,5,1.5,283.6482,-30.862938,,*68
$GPGGA,000006,5536.9771,N,03806.9015,E,1,5,1.5,281.11138,-30.687124,,*69
$GPGGA,000007,5536.9779,N,03806.9042,E,1,5,1.5,284.76636,-29.479761,,*63
$GPGGA,000008,5536.9786,N,03806.9022,E,1,5,1.5,278.49348,-30.621631,,*6A
$GPGGA,000009,5536.9794,N,03806.9045,E,1,5,1.5,278.04536,-29.573237,,*61
$GPGGA,000010,5536.9801,N,03806.8948,E,1,5,1.5,284.34325,-29.537034,,*6A
$GPGGA,000011,5536.9809,N,03806.9007,E,1,5,1.5,282.30032,-29.72789,,*52
$GPGGA,000012,5536.9817,N,03806.9019,E,1,5,1.5,278.69509,-30.107707,,*68
$GPGGA,000013,5536.9824,N,03806.9027,E,1,5,1.5,279.94185,-29.022215,,*6F
$GPGGA,000014,5536.9831,N,03806.8963,E,1,5,1.5,277.14852,-29.791183,,*62
$GPGGA,000015,5536.9839,N,03806.9005,E,1,5,1.5,280.36353,-30.197872,,*6E
$GPGGA,000016,5536.9846,N,03806.8967,E,1,5,1.5,275.14428,-30.249293,,*6D
$GPGGA,000017,5536.9854,N,03806.8967,E,1,5,1.5,281.27855,-29.7859,,*6E
$GPGGA,000018,5536.9861,N,03806.8965,E,1,5,1.5,284.40844,-29.757593,,*68
$GPGGA,000019,5536.987,N,03806.9045,E,1,5,1.5,275.19312,-30.502476,,*59
$GPGGA,000020,5536.9877,N,03806.9017,E,1,5,1.5,276.25196,-30.415566,,*66
$GPGGA,000021,5536.9884,N,03806.8976,E,1,5,1.5,283.20408,-30.226694,,*61
$GPGGA,000022,5536.9893,N,03806.9051,E,1,5,1.5,281.4132,-30.970114,,*56
$GPGGA,000023,5536.9899,N,03806.8965,E,1,5,1.5,283.30822,-30.872881,,*69
$GPGGA,000024,5536.9907,N,03806.8976,E,1,5,1.5,281.13094,-29.064818,,*6B
$GPGGA,000025,5536.9914,N,03806.8982,E,1,5,1.5,275.41081,-29.469942,,*6C
$GPGGA,000026,5536.9922,N,03806.8973,E,1,5,1.5,279.13534,-29.727492,,*6D
$GPGGA,000027,5536.993,N,03806.9006,E,1,5,1.5,280.22088,-30.760236,,*50
$GPGGA,000028,5536.9937,N,03806.8996,E,1,5,1.5,279.24438,-29.908512,,*6F
$GPGGA,000029,5536.9944,N,03806.8978,E,1,5,1.5,284.22071,-29.630488,,*61
$GPGGA,000030,5536.9952,N,03806.9009,E,1,5,1.5,278.25324,-29.882426,,*64
$GPGGA,000031,5536.996,N,03806.8998,E,1,5,1.5,277.89701,-30.687224,,*59
$GPGGA,000032,5536.9967,N,03806.899,E,1,5,1.5,278.80422,-29.325348,,*5F
$GPGGA,000033,5536.9974,N,03806.897,E,1,5,1.5,279.42134,-29.289243,,*52
$GPGGA,000034,5536.9983,N,03806.9013,E,1,5,1.5,281.92452,-30.880632,,*66
$GPGGA,000035,5536.999,N,03806.8986,E,1,5,1.5,280.96729,-29.349621,,*5F
$GPGGA,000036,5536.9999,N,03806.9047,E,1,5,1.5,283.91961,-29.025325,,*6E
$GPGGA,000037,5537.0004,N,03806.8942,E,1,5,1.5,279.85178,-30.219742,,*67
$GPGGA,000038,5537.0012,N,03806.8994,E,1,5,1.5,277.30948,-29.049907,,*6F
$GPGGA,000039,5537.0019,N,03806.8968,E,1,5,1.5,281.68817,-29.967864,,*68
$GPGGA,000040,5537.0027,N,03806.8986,E,1,5,1.5,280.49537,-29.963804,,*64
$GPGGA,000041,5537.0034,N,03806.897,E,1,5,1.5,277.73855,-29.364713,,*52
$GPGGA,000042,5537.0042,N,03806.8951,E,1,5,1.5,275.84453,-30.139191,,*6D
$GPGGA,000043,5537.0051,N,03806.9029,E,1,5,1.5,283.65274,-29.88861,,*59
$GPGGA,000044,5537.0057,N,03806.8961,E,1,5,1.5,280.88038,-29.505569,,*63
$GPGGA,000045,5537.0064,N,03806.8949,E,1,5,1.5,281.78156,-30.062633,,*6F
$GPGGA,000046,5537.0073,N,03806.9017,E,1,5,1.5,282.26567,-29.107629,,*66
$GPGGA,000047,5537.0079,N,03806.8953,E,1,5,1.5,284.25172,-29.436299,,*68
$GPGGA,000048,5537.0089,N,03806.9018,E,1,5,1.5,277.26608,-29.838891,,*6A
$GPGGA,000049,5537.0097,N,03806.9035,E,1,5,1.5,278.99005,-30.524294,,*6C
$GPGGA,000050,5537.0103,N,03806.8983,E,1,5,1.5,282.38187,-29.163632,,*6F
$GPGGA,000051,5537.011,N,03806.8983,E,1,5,1.5,275.88436,-30.014717,,*5F
$GPGGA,000052,5537.012,N,03806.9039,E,1,5,1.5,283.83487,-29.639589,,*5A
$GPGGA,000053,5537.0124,N,03806.8947,E,1,5,1.5,275.26853,-29.559367,,*6E
$GPGGA,000054,5537.0132,N,03806.8957,E,1,5,1.5,279.59856,-30.053943,,*65
$GPGGA,000055,5537.0141,N,03806.9,E,1,5,1.5,275.91939,-29.458557,,*54
$GPGGA,000056,5537.0149,N,03806.9003,E,1,5,1.5,277.65854,-30.985093,,*67
$GPGGA,000057,5537.0157,N,03806.9015,E,1,5,1.5,284.7527,-29.55296,,*64
$GPGGA,000058,5537.0165,N,03806.9039,E,1,5,1.5,280.19103,-29.602697,,*6C
$GPGGA,000059,5537.0171,N,03806.8992,E,1,5,1.5,275.40597,-30.634984,,*6E
$GPGGA,000100,5537.0178,N,03806.8973,E,1,5,1.5,278.34675,-29.518509,,*68
$GPGGA,000101,5537.0185,N,03806.8978,E,1,5,1.5,277.8954,-30.692184,,*54
$GPGGA,000102,5537.0195,N,03806.9042,E,1,5,1.5,277.32787,-30.500484,,*63
$GPGGA,000103,5537.0203,N,03806.9044,E,1,5,1.5,276.53461,-29.295197,,*61
$GPGGA,000104,5537.0208,N,03806.8972,E,1,5,1.5,276.44539,-29.862677,,*61
$GPGGA,000105,5537.0215,N,03806.8975,E,1,5,1.5,278.30255,-30.442715,,*68
$GPGGA,000106,5537.0225,N,03806.9018,E,1,5,1.5,283.84445,-30.343411,,*66
$GPGGA,000107,5537.023,N,03806.8961,E,1,5,1.5,278.84813,-29.175987,,*53
$GPGGA,000108,5537.0239,N,03806.8989,E,1,5,1.5,280.58513,-30.284236,,*6C
$GPGGA,000109,5537.0245,N,03806.896,E,1,5,1.5,278.31908,-30.275354,,*54
$GPGGA,000110,5537.0254,N,03806.8991,E,1,5,1.5,283.76629,-30.922165,,*60
$GPGGA,000111,5537.0261,N,03806.8993,E,1,5,1.5,284.20256,-30.351308,,*6A
$GPGGA,000112,5537.0267,N,03806.8942,E,1,5,1.5,283.37975,-30.607689,,*62
$GPGGA,000113,5537.0275,N,03806.8954,E,1,5,1.5,283.36488,-29.642593,,*68
$GPGGA,000114,5537.0285,N,03806.9002,E,1,5,1.5,282.58255,-30.761078,,*6C
$GPGGA,000115,5537.0293,N,03806.9018,E,1,5,1.5,280.47811,-30.833831,,*6A
$GPGGA,000116,5537.0296,N,03806.8932,E,1,5,1.5,276.07463,-29.379459,,*67
$GPGGA,000117,5537.0307,N,03806.9007,E,1,5,1.5,275.02072,-29.205177,,*60
$GPGGA,000118,5537.0312,N,03806.895,E,1,5,1.5,276.26946,-30.907183,,*50
$GPGGA,000119,5537.0321,N,03806.8972,E,1,5,1.5,284.04011,-29.426513,,*6C
$GPGGA,000120,5537.0331,N,03806.9024,E,1,5,1.5,281.94518,-30.281959,,*6D
$GPGGA,000121,5537.0337,N,03806.8995,E,1,5,1.5,282.8642,-29.308664,,*5B
$GPGGA,000122,5537.0344,N,03806.8982,E,1,5,1.5,279.06372,-29.969284,,*61
$GPGGA,000123,5537.035,N,03806.8951,E,1,5,1.5,280.94991,-29.824154,,*57
$GPGGA,000124,5537.0361,N,03806.9024,E,1,5,1.5,278.4453,-29.797647,,*57
$GPGGA,000125,5537.0364,N,03806.8937,E,1,5,1.5,275.05568,-29.709987,,*68
$GPGGA,000126,5537.0373,N,03806.8957,E,1,5,1.5,279.986,-30.407014,,*68
$GPGGA,000127,5537.0384,N,03806.9025,E,1,5,1.5,276.92586,-29.964964,,*6A
$GPGGA,000128,5537.0392,N,03806.9024,E,1,5,1.5,278.10575,-30.123096,,*6C
$GPGGA,000129,5537.0397,N,03806.8984,E,1,5,1.5,277.67422,-30.554023,,*6C
$GPGGA,000130,5537.0408,N,03806.904,E,1,5,1.5,278.11431,-30.069898,,*5A
$GPGGA,000131,5537.0413,N,03806.8998,E,1,5,1.5,276.05423,-30.632123,,*65
$GPGGA,000132,5537.0423,N,03806.9039,E,1,5,1.5,278.18268,-29.33305,,*54
$GPGGA,000133,5537.0424,N,03806.8926,E,1,5,1.5,282.80353,-30.600148,,*6C
$GPGGA,000134,5537.0436,N,03806.9009,E,1,5,1.5,276.6075,-30.986417,,*51
$GPGGA,000135,5537.0441,N,03806.8968,E,1,5,1.5,278.25014,-29.305345,,*6E
$GPGGA,000136,5537.045,N,03806.8991,E,1,5,1.5,279.05598,-30.794491,,*53
$GPGGA,000137,5537.046,N,03806.902,E,1,5,1.5,275.36788,-30.698802,,*67
$GPGGA,000138,5537.0461,N,03806.8925,E,1,5,1.5,275.47865,-29.403068,,*62
$GPGGA,000139,5537.0474,N,03806.9016,E,1,5,1.5,275.46851,-29.262439,,*68
$GPGGA,000140,5537.0483,N,03806.9027,E,1,5,1.5,281.37777,-29.8307,,*6E
$GPGGA,000141,5537.0488,N,03806.8984,E,1,5,1.5,278.71807,-30.518053,,*67
$GPGGA,000142,5537.0495,N,03806.8984,E,1,5,1.5,283.11853,-29.073431,,*6B
$GPGGA,000143,5537.0505,N,03806.9013,E,1,5,1.5,276.66498,-29.930873,,*61
$GPGGA,000144,5537.0506,N,03806.8921,E,1,5,1.5,281.97084,-29.635317,,*60
$GPGGA,000145,5537.0518,N,03806.8981,E,1,5,1.5,278.96734,-30.52016,,*52
$GPGGA,000146,5537.0522,N,03806.8928,E,1,5,1.5,276.56903,-29.797225,,*67
$GPGGA,000147,5537.0534,N,03806.9,E,1,5,1.5,281.50689,-30.489333,,*52
$GPGGA,000148,5537.0538,N,03806.8945,E,1,5,1.5,278.47705,-30.436409,,*67
$GPGGA,000149,5537.0548,N,03806.8977,E,1,5,1.5,278.07732,-29.18813,,*57
$GPGGA,000150,5537.0559,N,03806.903,E,1,5,1.5,280.54661,-29.209377,,*59
$GPGGA,000151,5537.0564,N,03806.8999,E,1,5,1.5,282.83415,-30.719292,,*62
$GPGGA,000152,5537.0566,N,03806.8911,E,1,5,1.5,282.7558,-29.910528,,*5E
$GPGGA,000153,5537.0578,N,03806.8981,E,1,5,1.5,275.69396,-29.502289,,*6E
$GPGGA,000154,5537.0583,N,03806.8946,E,1,5,1.5,275.21571,-29.81908,,*59
$GPGGA,000155,5537.059,N,03806.8939,E,1,5,1.5,277.87024,-29.106567,,*52
$GPGGA,000156,5537.0601,N,03806.8983,E,1,5,1.5,283.03245,-30.846773,,*6B
$GPGGA,000157,5537.0604,N,03806.8922,E,1,5,1.5,279.7335,-30.666836,,*51
$GPGGA,000158,5537.0616,N,03806.898,E,1,5,1.5,282.71223,-29.298857,,*5C
$GPGGA,000159,5537.0624,N,03806.8988,E,1,5,1.5,278.18311,-30.192882,,*67
$GPGGA,000200,5537.0628,N,03806.8946,E,1,5,1.5,284.79678,-30.060857,,*6C
$GPGGA,000201,5537.0633,N,03806.8909,E,1,5,1.5,275.71835,-29.086413,,*61
$GPGGA,000202,5537.0645,N,03806.8967,E,1,5,1.5,282.41692,-30.023625,,*63
$GPGGA,000203,5537.0652,N,03806.8951,E,1,5,1.5,278.39614,-29.177434,,*6F
$GPGGA,000204,5537.0658,N,03806.8933,E,1,5,1.5,280.45139,-30.559166,,*60
$GPGGA,000205,5537.0668,N,03806.8964,E,1,5,1.5,284.86308,-30.59266,,*5D
$GPGGA,000206,5537.0674,N,03806.8953,E,1,5,1.5,284.97885,-29.859755,,*6C
$GPGGA,000207,5537.0681,N,03806.8937,E,1,5,1.5,283.64907,-29.768451,,*6F
$GPGGA,000208,5537.0686,N,03806.8912,E,1,5,1.5,277.71018,-30.952822,,*6F
$GPGGA,000209,5537.0699,N,03806.8975,E,1,5,1.5,280.91031,-29.920785,,*63
$GPGGA,000210,5537.0704,N,03806.8942,E,1,5,1.5,275.08885,-30.204135,,*6F
$GPGGA,000211,5537.0715,N,03806.8984,E,1,5,1.5,275.80891,-29.284759,,*6D
$GPGGA,000212,5537.072,N,03806.8961,E,1,5,1.5,276.74675,-30.121746,,*55
$GPGGA,000213,5537.0726,N,03806.8933,E,1,5,1.5,275.71671,-29.436122,,*68
$GPGGA,000214,5537.0737,N,03806.8975,E,1,5,1.5,283.00292,-29.273234,,*68
$GPGGA,000215,5537.0739,N,03806.8908,E,1,5,1.5,278.43093,-29.00734,,*5E
$GPGGA,000216,5537.075,N,03806.895,E,1,5,1.5,276.09286,-29.12872,,*57
$GPGGA,000217,5537.076,N,03806.8982,E,1,5,1.5,283.58888,-29.110693,,*52
$GPGGA,000218,5537.0769,N,03806.9002,E,1,5,1.5,284.81569,-30.642165,,*63
$GPGGA,000219,5537.077,N,03806.8924,E,1,5,1.5,280.46955,-29.780898,,*56
$GPGGA,000220,5537.078,N,03806.8946,E,1,5,1.5,277.28687,-30.38345,,*60
$GPGGA,000221,5537.0793,N,03806.9009,E,1,5,1.5,284.36931,-29.749773,,*69
$GPGGA,000222,5537.0795,N,03806.8953,E,1,5,1.5,281.48384,-29.033742,,*6B
$GPGGA,000223,5537.0803,N,03806.8954,E,1,5,1.5,278.73933,-30.86542,,*51
$GPGGA,000224,5537.0811,N,03806.8958,E,1,5,1.5,278.27215,-30.056629,,*64
$GPGGA,000225,5537.0819,N,03806.8958,E,1,5,1.5,275.2723,-29.468451,,*5B
$GPGGA,000226,5537.0825,N,03806.8946,E,1,5,1.5,276.59955,-29.35755,,*51
$GPGGA,000227,5537.0836,N,03806.8982,E,1,5,1.5,279.12582,-30.037738,,*6D
$GPGGA,000228,5537.0844,N,03806.8983,E,1,5,1.5,275.54556,-29.743998,,*69
$GPGGA,000229,5537.0853,N,03806.9005,E,1,5,1.5,281.46996,-29.418195,,*68
$GPGGA,000230,5537.0859,N,03806.8985,E,1,5,1.5,282.91396,-30.999004,,*6C
$GPGGA,000231,5537.0862,N,03806.8937,E,1,5,1.5,276.54661,-30.943094,,*6D
$GPGGA,000232,5537.0868,N,03806.8915,E,1,5,1.5,275.05585,-29.380409,,*67
$GPGGA,000233,5537.0883,N,03806.8995,E,1,5,1.5,275.42805,-30.76341,,*54
$GPGGA,000234,5537.0881,N,03806.8896,E,1,5,1.5,277.61056,-29.35841,,*5A
$GPGGA,000235,5537.0893,N,03806.8939,E,1,5,1.5,283.66218,-29.696698,,*6D
$GPGGA,000236,5537.0899,N,03806.893,E,1,5,1.5,281.85211,-29.40389,,*63
$GPGGA,000237,5537.0902,N,03806.8886,E,1,5,1.5,284.992,-30.908003,,*69
$GPGGA,000238,5537.0916,N,03806.8943,E,1,5,1.5,276.32864,-30.640029,,*64
$GPGGA,000239,5537.0927,N,03806.898,E,1,5,1.5,278.33686,-30.735296,,*50
$GPGGA,000240,5537.0932,N,03806.8953,E,1,5,1.5,278.48223,-30.169702,,*64
$GPGGA,000241,5537.0934,N,03806.8901,E,1,5,1.5,280.22281,-30.971947,,*69
$GPGGA,000242,5537.094,N,03806.888,E,1,5,1.5,275.93677,-29.891142,,*66
$GPGGA,000243,5537.0957,N,03806.8978,E,1,5,1.5,279.84979,-29.918727,,*69
$GPGGA,000244,5537.0955,N,03806.8886,E,1,5,1.5,282.14129,-30.614407,,*66
$GPGGA,000245,5537.0972,N,03806.8978,E,1,5,1.5,278.98298,-30.517841,,*64
$GPGGA,000246,5537.0969,N,03806.8877,E,1,5,1.5,276.05618,-30.291108,,*68
$GPGGA,000247,5537.0979,N,03806.8897,E,1,5,1.5,283.85585,-30.881491,,*6D
$GPGGA,000248,5537.099,N,03806.8932,E,1,5,1.5,280.57003,-30.169929,,*5D
$GPGGA,000249,5537.1001,N,03806.8962,E,1,5,1.5,281.27248,-29.527474,,*61
$GPGGA,000250,5537.1011,N,03806.8984,E,1,5,1.5,279.33424,-29.690427,,*67
$GPGGA,000251,5537.1009,N,03806.8896,E,1,5,1.5,276.09657,-30.634307,,*6E
$GPGGA,000252,5537.1021,N,03806.8939,E,1,5,1.5,276.70329,-29.927613,,*64
$GPGGA,000253,5537.1025,N,03806.8901,E,1,5,1.5,282.31466,-29.628386,,*61
$GPGGA,000254,5537.1035,N,03806.8921,E,1,5,1.5,280.46786,-30.399809,,*61
$GPGGA,000255,5537.1048,N,03806.8977,E,1,5,1.5,284.8611,-30.415676,,*5D
$GPGGA,000256,5537.1055,N,03806.8963,E,1,5,1.5,282.06845,-29.052294,,*67
$GPGGA,000257,5537.1062,N,03806.8963,E,1,5,1.5,284.3922,-30.570432,,*56
$GPGGA,000258,5537.1062,N,03806.8896,E,1,5,1.5,283.97698,-30.229227,,*6F
$GPGGA,000259,5537.1072,N,03806.8914,E,1,5,1.5,282.19713,-29.793449,,*63
$GPGGA,000300,5537.1079,N,03806.8907,E,1,5,1.5,278.93383,-30.446353,,*62
$GPGGA,000301,5537.1091,N,03806.8945,E,1,5,1.5,277.43303,-29.952345,,*6E
$GPGGA,000302,5537.1099,N,03806.8953,E,1,5,1.5,280.72793,-30.776986,,*60
$GPGGA,000303,5537.1101,N,03806.8904,E,1,5,1.5,283.87183,-30.01638,,*50
$GPGGA,000304,5537.1114,N,03806.8952,E,1,5,1.5,281.20717,-29.663782,,*6E
$GPGGA,000305,5537.1119,N,03806.8925,E,1,5,1.5,278.34629,-30.198295,,*65
$GPGGA,000306,5537.112,N,03806.887,E,1,5,1.5,283.20695,-30.968784,,*69
$GPGGA,000307,5537.1139,N,03806.8972,E,1,5,1.5,278.0828,-30.615697,,*5B
$GPGGA,000308,5537.1136,N,03806.8883,E,1,5,1.5,284.08406,-29.07425,,*59
$GPGGA,000309,5537.1141,N,03806.8858,E,1,5,1.5,279.10828,-30.784457,,*64
$GPGGA,000310,5537.116,N,03806.8953,E,1,5,1.5,279.54359,-29.846772,,*55
$GPGGA,000311,5537.1157,N,03806.887,E,1,5,1.5,282.91898,-29.25666,,*62
$GPGGA,000312,5537.1177,N,03806.8969,E,1,5,1.5,282.44634,-29.27716,,*5E
$GPGGA,000313,5537.118,N,03806.893,E,1,5,1.5,283.59834,-29.715568,,*65
$GPGGA,000314,5537.1182,N,03806.8881,E,1,5,1.5,276.28413,-30.608621,,*65
$GPGGA,000315,5537.1193,N,03806.8913,E,1,5,1.5,282.57163,-30.840125,,*6E
$GPGGA,000316,5537.1205,N,03806.895,E,1,5,1.5,278.0106,-29.765713,,*61
$GPGGA,000317,5537.1212,N,03806.8942,E,1,5,1.5,283.18484,-30.251492,,*67
$GPGGA,000318,5537.121,N,03806.8863,E,1,5,1.5,279.91503,-29.896581,,*58
$GPGGA,000319,5537.1227,N,03806.8941,E,1,5,1.5,282.29522,-29.854107,,*6C
$GPGGA,000320,5537.1228,N,03806.8887,E,1,5,1.5,275.22656,-30.840974,,*60
$GPGGA,000321,5537.1234,N,03806.8877,E,1,5,1.5,281.06111,-30.883785,,*65
$GPGGA,000322,5537.1252,N,03806.896,E,1,5,1.5,277.13641,-30.336545,,*55
$GPGGA,000323,5537.1258,N,03806.8949,E,1,5,1.5,282.11841,-29.97534,,*55
$GPGGA,000324,5537.1256,N,03806.8867,E,1,5,1.5,275.92556,-30.77593,,*52
$GPGGA,000325,5537.1273,N,03806.8943,E,1,5,1.5,275.33135,-30.562251,,*61
$GPGGA,000326,5537.1278,N,03806.892,E,1,5,1.5,283.88541,-30.32711,,*63
$GPGGA,000327,5537.1289,N,03806.8948,E,1,5,1.5,279.30494,-30.920843,,*6F
$GPGGA,000328,5537.1283,N,03806.8842,E,1,5,1.5,282.71893,-30.229554,,*62
$GPGGA,000329,5537.1293,N,03806.8865,E,1,5,1.5,280.84661,-29.171513,,*69
$GPGGA,000330,5537.1308,N,03806.892,E,1,5,1.5,283.10969,-29.078641,,*57
$GPGGA,000331,5537.1306,N,03806.885,E,1,5,1.5,279.56462,-30.54948,,*6F
$GPGGA,000332,5537.1325,N,03806.8933,E,1,5,1.5,281.14649,-29.910869,,*60
$GPGGA,000333,5537.1324,N,03806.8871,E,1,5,1.5,279.79067,-29.257567,,*6A
$GPGGA,000334,5537.1335,N,03806.8895,E,1,5,1.5,281.29084,-30.902335,,*6A
$GPGGA,000335,5537.1343,N,03806.8899,E,1,5,1.5,277.01423,-30.213521,,*64
$GPGGA,000336,5537.1342,N,03806.8836,E,1,5,1.5,280.57498,-29.493008,,*60
$GPGGA,000337,5537.1363,N,03806.8927,E,1,5,1.5,281.01605,-29.004351,,*62
$GPGGA,000338,5537.1366,N,03806.8897,E,1,5,1.5,283.71783,-30.749278,,*64
$GPGGA,000339,5537.1369,N,03806.886,E,1,5,1.5,282.88847,-29.360211,,*5A
$GPGGA,000340,5537.1387,N,03806.894,E,1,5,1.5,283.84644,-29.77728,,*6D
$GPGGA,000341,5537.1394,N,03806.8933,E,1,5,1.5,278.12988,-30.460304,,*6E
$GPGGA,000342,5537.1392,N,03806.8864,E,1,5,1.5,278.51042,-30.999514,,*6C
$GPGGA,000343,5537.1396,N,03806.8837,E,1,5,1.5,283.00091,-29.383325,,*6C
$GPGGA,000344,5537.1417,N,03806.8932,E,1,5,1.5,275.67673,-30.107229,,*68
$GPGGA,000345,5537.1421,N,03806.8907,E,1,5,1.5,276.32987,-29.014929,,*6D
$GPGGA,000346,5537.1431,N,03806.8927,E,1,5,1.5,279.39263,-29.501103,,*69
$GPGGA,000347,5537.143,N,03806.8866,E,1,5,1.5,283.95489,-30.724734,,*53
$GPGGA,000348,5537.144,N,03806.8885,E,1,5,1.5,279.80391,-29.032697,,*59
$GPGGA,000349,5537.145,N,03806.89,E,1,5,1.5,277.99026,-30.125356,,*5B
$GPGGA,000350,5537.1457,N,03806.8896,E,1,5,1.5,277.21619,-30.859187,,*6F
$GPGGA,000351,5537.146,N,03806.8864,E,1,5,1.5,278.10452,-29.225969,,*56
$GPGGA,000352,5537.1463,N,03806.883,E,1,5,1.5,284.88669,-30.223888,,*5F
$GPGGA,000353,5537.1477,N,03806.8871,E,1,5,1.5,276.99773,-29.292906,,*6C
$GPGGA,000354,5537.1483,N,03806.8861,E,1,5,1.5,280.23391,-30.975048,,*68
$GPGGA,000355,5537.1498,N,03806.8912,E,1,5,1.5,277.26554,-29.729781,,*69
$GPGGA,000356,5537.1495,N,03806.8843,E,1,5,1.5,279.15287,-29.635431,,*61
$GPGGA,000357,5537.1502,N,03806.8838,E,1,5,1.5,281.83735,-29.28965,,*51
$GPGGA,000358,5537.1511,N,03806.8847,E,1,5,1.5,283.12319,-30.835175,,*61
$GPGGA,000359,5537.1519,N,03806.8852,E,1,5,1.5,275.17632,-30.931702,,*6F
$GPGGA,000400,5537.1528,N,03806.886,E,1,5,1.5,283.79779,-29.92044,,*65
$GPGGA,000401,5537.1533,N,03806.8843,E,1,5,1.5,277.4285,-30.634975,,*51
$GPGGA,000402,5537.1544,N,03806.8866,E,1,5,1.5,284.75942,-29.550324,,*68
$GPGGA,000403,5537.1546,N,03806.8825,E,1,5,1.5,278.70877,-29.481612,,*60
$GPGGA,000404,5537.1552,N,03806.8819,E,1,5,1.5,275.13276,-30.094577,,*66
$GPGGA,000405,5537.1557,N,03806.8801,E,1,5,1.5,275.71086,-29.322143,,*67
$GPGGA,000406,5537.1572,N,03806.8846,E,1,5,1.5,284.73942,-30.644581,,*6A
$GPGGA,000407,5537.1572,N,03806.8798,E,1,5,1.5,277.82928,-29.335299,,*6C
$GPGGA,000408,5537.1583,N,03806.8819,E,1,5,1.5,275.48347,-30.450118,,*6A
$GPGGA,000409,5537.1592,N,03806.8826,E,1,5,1.5,284.98028,-29.794858,,*60
$GPGGA,000410,5537.16,N,03806.8834,E,1,5,1.5,278.65489,-29.594423,,*6F
$GPGGA,000411,5537.1605,N,03806.8816,E,1,5,1.5,284.30967,-30.356022,,*60
$GPGGA,000412,5537.1615,N,03806.8826,E,1,5,1.5,282.83849,-30.720011,,*67
$GPGGA,000413,5537.1621,N,03806.8822,E,1,5,1.5,277.97476,-29.173825,,*6D
$GPGGA,000414,5537.1629,N,03806.8823,E,1,5,1.5,282.11584,-30.617786,,*60
$GPGGA,000415,5537.1642,N,03806.8855,E,1,5,1.5,279.1881,-30.166072,,*5D
$GPGGA,000416,5537.1643,N,03806.8811,E,1,5,1.5,279.24763,-29.49194,,*56
$GPGGA,000417,5537.1659,N,03806.8866,E,1,5,1.5,278.71038,-30.733311,,*69
$GPGGA,000418,5537.1665,N,03806.8853,E,1,5,1.5,283.52402,-30.71312,,*55
$GPGGA,000419,5537.1669,N,03806.8832,E,1,5,1.5,278.98005,-29.248336,,*68
$GPGGA,000420,5537.1676,N,03806.8832,E,1,5,1.5,277.97044,-30.872388,,*67
$GPGGA,000421,5537.1682,N,03806.8817,E,1,5,1.5,278.06721,-30.627714,,*66
$GPGGA,000422,5537.1694,N,03806.8847,E,1,5,1.5,275.59637,-30.948456,,*65
$GPGGA,000423,5537.1699,N,03806.8828,E,1,5,1.5,280.6392,-29.297859,,*58
$GPGGA,000424,5537.1717,N,03806.8892,E,1,5,1.5,279.37461,-30.400702,,*67
$GPGGA,000425,5537.171,N,03806.8805,E,1,5,1.5,278.12532,-29.868119,,*58
$GPGGA,000426,5537.1721,N,03806.8826,E,1,5,1.5,275.63847,-29.000469,,*68
$GPGGA,000427,5537.1721,N,03806.8781,E,1,5,1.5,275.26842,-30.823408,,*69
$GPGGA,000428,5537.1732,N,03806.8801,E,1,5,1.5,275.58445,-30.213148,,*69
$GPGGA,000429,5537.1736,N,03806.8778,E,1,5,1.5,275.25061,-29.548863,,*64
$GPGGA,000430,5537.1758,N,03806.8859,E,1,5,1.5,284.56793,-30.943537,,*6B
$GPGGA,000431,5537.175,N,03806.8772,E,1,5,1.5,280.5807,-29.999033,,*6A
$GPGGA,000432,5537.1764,N,03806.8807,E,1,5,1.5,283.87927,-29.456983,,*65
$GPGGA,000433,5537.1768,N,03806.8788,E,1,5,1.5,281.93086,-29.324099,,*65
$GPGGA,000434,5537.1776,N,03806.8789,E,1,5,1.5,284.68788,-30.288807,,*64
$GPGGA,000435,5537.1786,N,03806.8799,E,1,5,1.5,282.11004,-30.765628,,*65
$GPGGA,000436,5537.1803,N,03806.8853,E,1,5,1.5,278.84185,-29.954509,,*68
$GPGGA,000437,5537.1795,N,03806.8766,E,1,5,1.5,277.36157,-29.134354,,*69
$GPGGA,000438,5537.182,N,03806.8867,E,1,5,1.5,276.21038,-30.273255,,*5E
$GPGGA,000439,5537.1818,N,03806.8811,E,1,5,1.5,283.17245,-30.182496,,*66
$GPGGA,000440,5537.1822,N,03806.8791,E,1,5,1.5,283.25688,-29.117143,,*6B
$GPGGA,000441,5537.1823,N,03806.8755,E,1,5,1.5,276.78196,-30.183098,,*6B
$GPGGA,000442,5537.185,N,03806.8859,E,1,5,1.5,282.52987,-29.398751,,*56
$GPGGA,000443,5537.1856,N,03806.8851,E,1,5,1.5,283.57686,-29.028912,,*62
$GPGGA,000444,5537.1855,N,03806.8802,E,1,5,1.5,277.75941,-30.109472,,*6E
$GPGGA,000445,5537.187,N,03806.8841,E,1,5,1.5,279.5609,-29.163301,,*62
$GPGGA,000446,5537.1863,N,03806.8764,E,1,5,1.5,284.24657,-30.22112,,*5D
$GPGGA,000447,5537.187,N,03806.876,E,1,5,1.5,277.08604,-29.655682,,*6E
$GPGGA,000448,5537.1887,N,03806.8808,E,1,5,1.5,279.23324,-29.263323,,*67
$GPGGA,000449,5537.1892,N,03806.8795,E,1,5,1.5,276.03282,-29.733997,,*6C
$GPGGA,000450,5537.1903,N,03806.8815,E,1,5,1.5,281.93999,-29.389202,,*68
$GPGGA,000451,5537.1917,N,03806.885,E,1,5,1.5,277.62756,-29.086711,,*5C
$GPGGA,000452,5537.1907,N,03806.8751,E,1,5,1.5,277.95939,-30.741819,,*6C
$GPGGA,000453,5537.1921,N,03806.8789,E,1,5,1.5,283.08366,-29.246848,,*6D
$GPGGA,000454,5537.194,N,03806.8848,E,1,5,1.5,277.6923,-30.93392,,*5F
$GPGGA,000455,5537.1927,N,03806.8739,E,1,5,1.5,284.25473,-29.370557,,*6A
$GPGGA,000456,5537.1954,N,03806.8843,E,1,5,1.5,283.51456,-30.453446,,*63
$GPGGA,000457,5537.1962,N,03806.8844,E,1,5,1.5,278.48684,-30.722706,,*63
$GPGGA,000458,5537.1969,N,03806.8837,E,1,5,1.5,275.3618,-30.807338,,*55
$GPGGA,000459,5537.1974,N,03806.8825,E,1,5,1.5,284.85754,-29.182005,,*63
$GPGGA,000500,5537.1964,N,03806.8731,E,1,5,1.5,279.41952,-29.216112,,*6E
$GPGGA,000501,5537.1971,N,03806.8727,E,1,5,1.5,283.98912,-30.078172,,*6D
$GPGGA,000502,5537.199,N,03806.8785,E,1,5,1.5,279.60634,-30.671726,,*58
$GPGGA,000503,5537.1995,N,03806.8772,E,1,5,1.5,278.62355,-30.673618,,*6B
$GPGGA,000504,5537.2012,N,03806.8822,E,1,5,1.5,276.53757,-29.171215,,*6D
$GPGGA,000505,5537.2012,N,03806.878,E,1,5,1.5,277.14664,-30.602166,,*54
$GPGGA,000506,5537.2029,N,03806.8827,E,1,5,1.5,283.6568,-30.938621,,*58
$GPGGA,000507,5537.2025,N,03806.8771,E,1,5,1.5,277.24891,-29.577307,,*67
$GPGGA,000508,5537.2036,N,03806.8788,E,1,5,1.5,275.22298,-29.447697,,*65
$GPGGA,000509,5537.2048,N,03806.8807,E,1,5,1.5,281.91076,-30.682481,,*62
$GPGGA,000510,5537.2056,N,03806.8807,E,1,5,1.5,275.84045,-29.05789,,*50
$GPGGA,000511,5537.2057,N,03806.8778,E,1,5,1.5,284.89922,-30.555892,,*61
$GPGGA,000512,5537.2061,N,03806.8759,E,1,5,1.5,276.21943,-29.076114,,*67
$GPGGA,000513,5537.2076,N,03806.8795,E,1,5,1.5,277.96406,-30.782352,,*65
$GPGGA,000514,5537.2078,N,03806.8764,E,1,5,1.5,284.85447,-29.056794,,*61
$GPGGA,000515,5537.2089,N,03806.8782,E,1,5,1.5,276.92051,-29.804661,,*6A
$GPGGA,000516,5537.2105,N,03806.8823,E,1,5,1.5,280.30843,-29.152697,,*61
$GPGGA,000517,5537.2092,N,03806.8722,E,1,5,1.5,278.80627,-29.667013,,*6A
$GPGGA,000518,5537.2109,N,03806.8765,E,1,5,1.5,283.78934,-30.329046,,*6C
$GPGGA,000519,5537.2109,N,03806.8726,E,1,5,1.5,277.30018,-30.902937,,*66
$GPGGA,000520,5537.2124,N,03806.8765,E,1,5,1.5,276.70779,-30.253411,,*67
$GPGGA,000521,5537.2128,N,03806.8749,E,1,5,1.5,278.59017,-29.880266,,*64
$GPGGA,000522,5537.2126,N,03806.8699,E,1,5,1.5,282.90227,-29.67388,,*54
$GPGGA,000523,5537.2147,N,03806.8763,E,1,5,1.5,284.8779,-29.91564,,*62
$GPGGA,000524,5537.2158,N,03806.8777,E,1,5,1.5,280.22001,-29.098021,,*67
$GPGGA,000525,5537.217,N,03806.8801,E,1,5,1.5,277.70758,-30.471039,,*54
$GPGGA,000526,5537.2158,N,03806.8705,E,1,5,1.5,281.14069,-30.585109,,*60
$GPGGA,000527,5537.2169,N,03806.8722,E,1,5,1.5,278.30659,-29.744846,,*66
$GPGGA,000528,5537.217,N,03806.8689,E,1,5,1.5,277.13076,-30.464152,,*51
$GPGGA,000529,5537.2191,N,03806.8754,E,1,5,1.5,277.12526,-30.969946,,*62
$GPGGA,000530,5537.2194,N,03806.873,E,1,5,1.5,276.41561,-29.790186,,*5D
$GPGGA,000531,5537.2209,N,03806.8764,E,1,5,1.5,279.76335,-29.731352,,*66
$GPGGA,000532,5537.2223,N,03806.8795,E,1,5,1.5,279.8573,-30.351355,,*53
$GPGGA,000533,5537.2227,N,03806.878,E,1,5,1.5,281.47084,-30.615859,,*51
$GPGGA,000534,5537.2222,N,03806.8718,E,1,5,1.5,284.62515,-29.039273,,*6F
$GPGGA,000535,5537.2243,N,03806.8779,E,1,5,1.5,277.41035,-30.506238,,*6A
$GPGGA,000536,5537.2231,N,03806.8688,E,1,5,1.5,280.34692,-30.395166,,*66
$GPGGA,000537,5537.2249,N,03806.8735,E,1,5,1.5,280.86881,-30.832458,,*64
$GPGGA,000538,5537.2256,N,03806.8734,E,1,5,1.5,277.42788,-30.144297,,*6F
$GPGGA,000539,5537.2274,N,03806.8779,E,1,5,1.5,276.60584,-30.092432,,*6B
$GPGGA,000540,5537.2282,N,03806.8783,E,1,5,1.5,282.22537,-29.53117,,*5B
$GPGGA,000541,5537.2281,N,03806.874,E,1,5,1.5,281.5264,-30.954806,,*6E
$GPGGA,000542,5537.2297,N,03806.878,E,1,5,1.5,278.76634,-29.268016,,*50
$GPGGA,000543,5537.2299,N,03806.8752,E,1,5,1.5,279.86504,-29.256268,,*68
$GPGGA,000544,5537.2301,N,03806.8726,E,1,5,1.5,281.69532,-30.909063,,*6F
$GPGGA,000545,5537.2313,N,03806.8746,E,1,5,1.5,275.06954,-29.2059,,*66
$GPGGA,000546,5537.2302,N,03806.8662,E,1,5,1.5,280.14043,-30.463081,,*6A
$GPGGA,000547,5537.2319,N,03806.8704,E,1,5,1.5,275.5711,-30.109051,,*5E
$GPGGA,000548,5537.2319,N,03806.8667,E,1,5,1.5,277.18477,-30.056716,,*67
$GPGGA,000549,5537.233,N,03806.8685,E,1,5,1.5,276.62883,-30.923243,,*54
$GPGGA,000550,5537.234,N,03806.8695,E,1,5,1.5,284.63086,-30.461097,,*5B
$GPGGA,000551,5537.2343,N,03806.8671,E,1,5,1.5,275.436,-29.958619,,*68
$GPGGA,000552,5537.237,N,03806.8757,E,1,5,1.5,277.74549,-30.294234,,*5E
$GPGGA,000553,5537.2373,N,03806.8736,E,1,5,1.5,281.67541,-30.035401,,*61
$GPGGA,000554,5537.2375,N,03806.8712,E,1,5,1.5,279.67258,-30.711687,,*63
$GPGGA,000555,5537.2378,N,03806.8689,E,1,5,1.5,280.71154,-30.410906,,*66
$GPGGA,000556,5537.2398,N,03806.8745,E,1,5,1.5,280.20149,-29.398024,,*64
$GPGGA,000557,5537.2404,N,03806.8737,E,1,5,1.5,281.60694,-29.788567,,*67
$GPGGA,000558,5537.2408,N,03806.8719,E,1,5,1.5,278.57826,-30.671555,,*63
$GPGGA,000559,5537.2399,N,03806.8647,E,1,5,1.5,277.15025,-29.721505,,*6C
$GPGGA,000600,5537.2411,N,03806.8666,E,1,5,1.5,275.04741,-29.514852,,*6B
$GPGGA,000601,5537.2431,N,03806.8721,E,1,5,1.5,278.08355,-30.723123,,*6B
$GPGGA,000602,5537.2425,N,03806.8659,E,1,5,1.5,280.81164,-30.343545,,*63
$GPGGA,000603,5537.2445,N,03806.8711,E,1,5,1.5,278.71632,-30.39723,,*59
$GPGGA,000604,5537.2459,N,03806.8738,E,1,5,1.5,281.097,-30.325908,,*68
$GPGGA,000605,5537.2454,N,03806.8686,E,1,5,1.5,276.11374,-29.900203,,*63
$GPGGA,000606,5537.2455,N,03806.8655,E,1,5,1.5,281.01106,-30.06571,,*54
$GPGGA,000607,5537.2474,N,03806.8704,E,1,5,1.5,280.04656,-30.047675,,*67
$GPGGA,000608,5537.247,N,03806.8655,E,1,5,1.5,278.88153,-29.460869,,*52
$GPGGA,000609,5537.2474,N,03806.8637,E,1,5,1.5,275.89034,-29.378256,,*67
$GPGGA,000610,5537.2496,N,03806.8698,E,1,5,1.5,276.76285,-29.550367,,*62
$GPGGA,000611,5537.2497,N,03806.867,E,1,5,1.5,277.66131,-29.486784,,*5B
$GPGGA,000612,5537.2513,N,03806.8703,E,1,5,1.5,282.79825,-30.161961,,*69
$GPGGA,000613,5537.2503,N,03806.863,E,1,5,1.5,283.37646,-29.939609,,*54
$GPGGA,000614,5537.2525,N,03806.8689,E,1,5,1.5,275.12477,-30.173165,,*68
$GPGGA,000615,5537.2525,N,03806.8655,E,1,5,1.5,279.9254,-30.084406,,*50
$GPGGA,000616,5537.2541,N,03806.869,E,1,5,1.5,282.00879,-30.198021,,*5D
$GPGGA,000617,5537.2554,N,03806.8713,E,1,5,1.5,279.64138,-30.067025,,*6D
$GPGGA,000618,5537.2541,N,03806.863,E,1,5,1.5,277.89945,-30.512145,,*59
$GPGGA,000619,5537.255,N,03806.8634,E,1,5,1.5,275.75908,-30.367862,,*5C
$GPGGA,000620,5537.2559,N,03806.8639,E,1,5,1.5,280.08764,-30.02856,,*51
$GPGGA,000621,5537.2558,N,03806.8602,E,1,5,1.5,278.94655,-30.170273,,*61
$GPGGA,000622,5537.2585,N,03806.8682,E,1,5,1.5,275.65785,-29.136803,,*62
$GPGGA,000623,5537.2576,N,03806.8614,E,1,5,1.5,282.09896,-29.873507,,*6E
$GPGGA,000624,5537.2586,N,03806.8622,E,1,5,1.5,283.42057,-30.217824,,*64
$GPGGA,000625,5537.2589,N,03806.8603,E,1,5,1.5,275.58148,-30.062683,,*67
$GPGGA,000626,5537.2614,N,03806.8673,E,1,5,1.5,280.51265,-30.647153,,*60
$GPGGA,000627,5537.2621,N,03806.8669,E,1,5,1.5,280.10895,-30.248289,,*63
$GPGGA,000628,5537.2627,N,03806.8664,E,1,5,1.5,278.35306,-30.09886,,*54
$GPGGA,000629,5537.2621,N,03806.8606,E,1,5,1.5,279.4497,-29.687715,,*56
$GPGGA,000630,5537.2634,N,03806.8629,E,1,5,1.5,277.64173,-30.962789,,*69
$GPGGA,000631,5537.2635,N,03806.86,E,1,5,1.5,280.14117,-29.601318,,*61
$GPGGA,000632,5537.2656,N,03806.8652,E,1,5,1.5,277.08874,-29.687576,,*69
$GPGGA,000633,5537.2663,N,03806.8652,E,1,5,1.5,280.40467,-29.095516,,*67
$GPGGA,000634,5537.2665,N,03806.8626,E,1,5,1.5,275.56159,-29.861947,,*6B
$GPGGA,000635,5537.2662,N,03806.8587,E,1,5,1.5,275.44693,-30.105421,,*69
$GPGGA,000636,5537.2674,N,03806.86,E,1,5,1.5,282.33785,-30.846801,,*6F
$GPGGA,000637,5537.2702,N,03806.868,E,1,5,1.5,281.33578,-29.669487,,*5C
$GPGGA,000638,5537.2695,N,03806.8622,E,1,5,1.5,275.15081,-30.770568,,*69
$GPGGA,000639,5537.2715,N,03806.8671,E,1,5,1.5,284.63765,-30.84871,,*5C
$GPGGA,000640,5537.2709,N,03806.8616,E,1,5,1.5,280.71563,-29.700354,,*62
$GPGGA,000641,5537.2727,N,03806.8657,E,1,5,1.5,280.0042,-30.602842,,*5D
$GPGGA,000642,5537.2731,N,03806.864,E,1,5,1.5,277.42343,-29.801362,,*5F
$GPGGA,000643,5537.2718,N,03806.8563,E,1,5,1.5,282.89577,-29.936144,,*68
$GPGGA,000644,5537.2732,N,03806.8585,E,1,5,1.5,284.89082,-30.297101,,*6F
$GPGGA,000645,5537.2761,N,03806.8666,E,1,5,1.5,279.62891,-30.625172,,*62
$GPGGA,000646,5537.2746,N,03806.8579,E,1,5,1.5,280.05246,-30.042868,,*6B
$GPGGA,000647,5537.2765,N,03806.8623,E,1,5,1.5,281.93575,-29.841087,,*64
$GPGGA,000648,5537.2779,N,03806.8646,E,1,5,1.5,284.48404,-29.525019,,*69
$GPGGA,000649,5537.2785,N,03806.8638,E,1,5,1.5,278.22254,-30.979007,,*6C
$GPGGA,000650,5537.2781,N,03806.8595,E,1,5,1.5,282.64327,-29.098517,,*6C
$GPGGA,000651,5537.2798,N,03806.8628,E,1,5,1.5,278.71493,-30.006877,,*6D
$GPGGA,000652,5537.2805,N,03806.8624,E,1,5,1.5,275.71627,-29.27526,,*5B
$GPGGA,000653,5537.2805,N,03806.8595,E,1,5,1.5,276.67741,-29.646382,,*6F
$GPGGA,000654,5537.2826,N,03806.8648,E,1,5,1.5,280.75703,-29.875696,,*68
$GPGGA,000655,5537.2809,N,03806.8553,E,1,5,1.5,282.89454,-30.698383,,*69
$GPGGA,000656,5537.2814,N,03806.8543,E,1,5,1.5,279.80724,-29.856212,,*63
$GPGGA,000657,5537.284,N,03806.861,E,1,5,1.5,275.60138,-30.825392,,*6A
$GPGGA,000658,5537.2847,N,03806.8606,E,1,5,1.5,278.68417,-30.62481,,*56
$GPGGA,000659,5537.284,N,03806.8552,E,1,5,1.5,283.05059,-30.103571,,*5B
$GPGGA,000700,5537.286,N,03806.8596,E,1,5,1.5,280.12394,-30.657561,,*5C
$GPGGA,000701,5537.2854,N,03806.8547,E,1,5,1.5,280.90383,-29.656763,,*63
$GPGGA,000702,5537.2863,N,03806.8553,E,1,5,1.5,280.96781,-30.228343,,*62
$GPGGA,000703,5537.2866,N,03806.8532,E,1,5,1.5,281.63482,-30.685063,,*68
$GPGGA,000704,5537.2872,N,03806.8526,E,1,5,1.5,278.07897,-30.064355,,*6C
$GPGGA,000705,5537.2878,N,03806.8521,E,1,5,1.5,278.13161,-30.200408,,*6A
$GPGGA,000706,5537.2908,N,03806.86,E,1,5,1.5,282.67719,-30.739922,,*6A
$GPGGA,000707,5537.2911,N,03806.8584,E,1,5,1.5,278.68564,-30.781705,,*66
$GPGGA,000708,5537.292,N,03806.8587,E,1,5,1.5,277.77906,-30.621067,,*59
$GPGGA,000709,5537.2914,N,03806.8538,E,1,5,1.5,275.55494,-30.661992,,*68
$GPGGA,000710,5537.2925,N,03806.8551,E,1,5,1.5,278.4311,-29.173379,,*5D
$GPGGA,000711,5537.2934,N,03806.8556,E,1,5,1.5,284.28908,-29.460124,,*69
$GPGGA,000712,5537.2949,N,03806.8578,E,1,5,1.5,279.42343,-29.445653,,*67
$GPGGA,000713,5537.2954,N,03806.8569,E,1,5,1.5,276.00337,-29.869496,,*69
$GPGGA,000714,5537.2961,N,03806.8568,E,1,5,1.5,280.17134,-30.541813,,*69
$GPGGA,000715,5537.2951,N,03806.8502,E,1,5,1.5,279.78971,-30.616293,,*62
$GPGGA,000716,5537.2963,N,03806.8518,E,1,5,1.5,281.45231,-29.893621,,*6B
$GPGGA,000717,5537.2989,N,03806.8583,E,1,5,1.5,277.45172,-30.999776,,*61
$GPGGA,000718,5537.298,N,03806.8521,E,1,5,1.5,283.68613,-30.146656,,*52
$GPGGA,000719,5537.2992,N,03806.8539,E,1,5,1.5,277.75156,-30.327093,,*62
$GPGGA,000720,5537.3014,N,03806.8587,E,1,5,1.5,281.4453,-30.472089,,*58
$GPGGA,000721,5537.3005,N,03806.8528,E,1,5,1.5,282.356,-30.555128,,*67
$GPGGA,000722,5537.3025,N,03806.8571,E,1,5,1.5,283.88358,-29.116728,,*68
$GPGGA,000723,5537.3027,N,03806.855,E,1,5,1.5,280.66912,-29.451877,,*5C
$GPGGA,000724,5537.304,N,03806.8569,E,1,5,1.5,275.76987,-29.003849,,*59
$GPGGA,000725,5537.3046,N,03806.8561,E,1,5,1.5,275.73937,-30.589853,,*6C
$GPGGA,000726,5537.3047,N,03806.8538,E,1,5,1.5,278.81511,-29.197307,,*63
$GPGGA,000727,5537.3069,N,03806.8587,E,1,5,1.5,278.4282,-29.48403,,*6A
$GPGGA,000728,5537.3076,N,03806.8582,E,1,5,1.5,277.97973,-30.041429,,*67
$GPGGA,000729,5537.3063,N,03806.8511,E,1,5,1.5,282.02805,-30.186811,,*63
$GPGGA,000730,5537.3068,N,03806.8501,E,1,5,1.5,282.44888,-30.789189,,*67
$GPGGA,000731,5537.3097,N,03806.8573,E,1,5,1.5,284.51693,-29.652532,,*6E
$GPGGA,000732,5537.3096,N,03806.8544,E,1,5,1.5,275.96335,-29.531158,,*6A
$GPGGA,000733,5537.3083,N,03806.8473,E,1,5,1.5,280.63731,-30.183993,,*60
$GPGGA,000734,5537.3103,N,03806.8515,E,1,5,1.5,276.19324,-30.237747,,*60
$GPGGA,000735,5537.3105,N,03806.8493,E,1,5,1.5,280.98667,-29.273524,,*65
$GPGGA,000736,5537.3117,N,03806.8509,E,1,5,1.5,277.84232,-30.727222,,*6B
$GPGGA,000737,5537.3119,N,03806.8489,E,1,5,1.5,280.30732,-29.151079,,*6C
$GPGGA,000738,5537.3137,N,03806.8521,E,1,5,1.5,279.17016,-30.372001,,*6A
$GPGGA,000739,5537.313,N,03806.8471,E,1,5,1.5,282.16292,-29.351865,,*50
$GPGGA,000740,5537.3145,N,03806.8496,E,1,5,1.5,276.61985,-29.355736,,*6E
$GPGGA,000741,5537.3157,N,03806.8511,E,1,5,1.5,282.18918,-30.615999,,*61
$GPGGA,000742,5537.3167,N,03806.8519,E,1,5,1.5,277.23866,-30.293673,,*62
$GPGGA,000743,5537.3154,N,03806.8447,E,1,5,1.5,277.10634,-29.432698,,*60
$GPGGA,000744,5537.3191,N,03806.8544,E,1,5,1.5,283.57916,-30.028796,,*63
$GPGGA,000745,5537.317,N,03806.8449,E,1,5,1.5,281.6808,-29.541499,,*67
$GPGGA,000746,5537.318,N,03806.8455,E,1,5,1.5,280.76829,-30.416252,,*59
$GPGGA,000747,5537.3187,N,03806.8452,E,1,5,1.5,280.82358,-29.703012,,*67
$GPGGA,000748,5537.3218,N,03806.853,E,1,5,1.5,280.43194,-29.908552,,*53
$GPGGA,000749,5537.321,N,03806.8478,E,1,5,1.5,279.01285,-30.051702,,*5E
$GPGGA,000750,5537.3223,N,03806.8495,E,1,5,1.5,281.16249,-30.75406,,*55
$GPGGA,000751,5537.3233,N,03806.8502,E,1,5,1.5,284.22831,-30.343204,,*6F
$GPGGA,000752,5537.324,N,03806.8499,E,1,5,1.5,280.21679,-29.621261,,*54
$GPGGA,000753,5537.3237,N,03806.8463,E,1,5,1.5,278.58471,-30.40867,,*56
$GPGGA,000754,5537.3232,N,03806.8422,E,1,5,1.5,276.13213,-30.461309,,*66
$GPGGA,000755,5537.324,N,03806.842,E,1,5,1.5,282.85211,-30.128642,,*64
$GPGGA,000756,5537.3263,N,03806.8471,E,1,5,1.5,276.94766,-29.421356,,*68
$GPGGA,000757,5537.3253,N,03806.8411,E,1,5,1.5,277.05039,-29.238966,,*6F
$GPGGA,000758,5537.327,N,03806.8442,E,1,5,1.5,283.71883,-30.621167,,*5B
$GPGGA,000759,5537.3279,N,03806.8447,E,1,5,1.5,284.30542,-30.281227,,*6D
$GPGGA,000800,5537.3289,N,03806.8454,E,1,5,1.5,284.01225,-30.605507,,*6A
$GPGGA,000801,5537.3303,N,03806.8471,E,1,5,1.5,280.15448,-29.01022,,*5B
$GPGGA,000802,5537.3298,N,03806.8429,E,1,5,1.5,275.0685,-30.28482,,*66
$GPGGA,000803,5537.3306,N,03806.8432,E,1,5,1.5,284.48845,-29.570955,,*6C
$GPGGA,000804,5537.3319,N,03806.8446,E,1,5,1.5,281.3205,-30.176681,,*5E
$GPGGA,000805,5537.3321,N,03806.8428,E,1,5,1.5,278.3181,-30.757686,,*57
$GPGGA,000806,5537.3336,N,03806.8451,E,1,5,1.5,275.95473,-29.760534,,*60
$GPGGA,000807,5537.3327,N,03806.8399,E,1,5,1.5,282.55218,-30.667481,,*6C
$GPGGA,000808,5537.3358,N,03806.847,E,1,5,1.5,281.203,-30.758208,,*58
$GPGGA,000809,5537.3355,N,03806.8436,E,1,5,1.5,280.97478,-30.060811,,*6D
$GPGGA,000810,5537.3355,N,03806.8411,E,1,5,1.5,277.05221,-29.152716,,*69
$GPGGA,000811,5537.336,N,03806.8403,E,1,5,1.5,284.60925,-29.741681,,*56
$GPGGA,000812,5537.3371,N,03806.8412,E,1,5,1.5,283.05944,-29.757839,,*6C
$GPGGA,000813,5537.3374,N,03806.8398,E,1,5,1.5,279.65648,-30.269789,,*69
$GPGGA,000814,5537.3381,N,03806.8394,E,1,5,1.5,282.96021,-30.150981,,*66
$GPGGA,000815,5537.3395,N,03806.8413,E,1,5,1.5,276.19488,-29.317214,,*6F
$GPGGA,000816,5537.3399,N,03806.84,E,1,5,1.5,276.75702,-29.781816,,*6A
$GPGGA,000817,5537.342,N,03806.844,E,1,5,1.5,279.82947,-30.982134,,*6E
$GPGGA,000818,5537.3438,N,03806.8471,E,1,5,1.5,279.976,-29.069209,,*6B
$GPGGA,000819,5537.3429,N,03806.842,E,1,5,1.5,283.47786,-30.372083,,*58
$GPGGA,000820,5537.3417,N,03806.8358,E,1,5,1.5,284.77892,-30.298925,,*69
$GPGGA,000821,5537.3456,N,03806.8455,E,1,5,1.5,281.48028,-29.769232,,*69
$GPGGA,000822,5537.3443,N,03806.8391,E,1,5,1.5,282.61828,-29.134611,,*6A
$GPGGA,000823,5537.3442,N,03806.8361,E,1,5,1.5,283.22147,-29.690202,,*6C
$GPGGA,000824,5537.3452,N,03806.8369,E,1,5,1.5,283.12273,-30.554567,,*62
$GPGGA,000825,5537.3457,N,03806.8359,E,1,5,1.5,278.45165,-29.152912,,*63
$GPGGA,000826,5537.3491,N,03806.8439,E,1,5,1.5,278.90061,-30.026791,,*69
$GPGGA,000827,5537.349,N,03806.8412,E,1,5,1.5,281.49438,-30.462954,,*59
$GPGGA,000828,5537.3488,N,03806.8383,E,1,5,1.5,280.94886,-29.734814,,*65
$GPGGA,000829,5537.3505,N,03806.8411,E,1,5,1.5,276.52845,-30.832004,,*68
$GPGGA,000830,5537.3495,N,03806.8355,E,1,5,1.5,284.35489,-30.666807,,*6B
$GPGGA,000831,5537.3526,N,03806.8424,E,1,5,1.5,281.13165,-30.140756,,*6C
$GPGGA,000832,5537.3502,N,03806.8329,E,1,5,1.5,278.97901,-30.380476,,*6C
$GPGGA,000833,5537.3527,N,03806.8381,E,1,5,1.5,280.27364,-29.1589,,*6E
$GPGGA,000834,5537.3552,N,03806.8431,E,1,5,1.5,284.80474,-29.256236,,*6B
$GPGGA,000835,5537.3525,N,03806.8327,E,1,5,1.5,277.94561,-29.53462,,*56
$GPGGA,000836,5537.3562,N,03806.8412,E,1,5,1.5,276.64462,-29.051163,,*6D
$GPGGA,000837,5537.3549,N,03806.8349,E,1,5,1.5,278.61416,-29.866124,,*6B
$GPGGA,000838,5537.3547,N,03806.8322,E,1,5,1.5,277.88898,-30.566233,,*65
$GPGGA,000839,5537.3574,N,03806.8377,E,1,5,1.5,275.68684,-29.167715,,*67
$GPGGA,000840,5537.3587,N,03806.8394,E,1,5,1.5,277.98524,-30.239342,,*6A
$GPGGA,000841,5537.3568,N,03806.8312,E,1,5,1.5,279.17695,-30.042884,,*6B
$GPGGA,000842,5537.3596,N,03806.8371,E,1,5,1.5,283.33506,-30.476599,,*64
$GPGGA,000843,5537.3595,N,03806.8345,E,1,5,1.5,279.75508,-30.876935,,*6E
$GPGGA,000844,5537.3606,N,03806.8354,E,1,5,1.5,276.29705,-29.534409,,*68
$GPGGA,000845,5537.3614,N,03806.8356,E,1,5,1.5,281.3748,-29.361644,,*5C
$GPGGA,000846,5537.3604,N,03806.8302,E,1,5,1.5,281.98246,-29.764836,,*6C
$GPGGA,000847,5537.3643,N,03806.8392,E,1,5,1.5,279.66017,-30.664452,,*60
$GPGGA,000848,5537.3643,N,03806.837,E,1,5,1.5,277.53125,-30.036743,,*59
$GPGGA,000849,5537.3625,N,03806.8294,E,1,5,1.5,278.24235,-30.55468,,*51
$GPGGA,000850,5537.3634,N,03806.8297,E,1,5,1.5,283.55619,-29.145216,,*65
$GPGGA,000851,5537.3656,N,03806.8337,E,1,5,1.5,280.23302,-30.799287,,*61
$GPGGA,000852,5537.3674,N,03806.8366,E,1,5,1.5,282.44248,-30.021772,,*61
$GPGGA,000853,5537.3654,N,03806.8287,E,1,5,1.5,277.02198,-29.140647,,*63
$GPGGA,000854,5537.3685,N,03806.8353,E,1,5,1.5,283.19019,-29.557842,,*60
$GPGGA,000855,5537.3672,N,03806.8293,E,1,5,1.5,281.58649,-29.168868,,*60
$GPGGA,000856,5537.368,N,03806.8292,E,1,5,1.5,277.48732,-29.854038,,*51
$GPGGA,000857,5537.3695,N,03806.8313,E,1,5,1.5,278.49979,-30.401137,,*69
$GPGGA,000858,5537.3702,N,03806.8311,E,1,5,1.5,276.70076,-29.707706,,*60
$GPGGA,000859,5537.37,N,03806.8282,E,1,5,1.5,277.82639,-29.880595,,*61
$GPGGA,000900,5537.3713,N,03806.8297,E,1,5,1.5,284.47268,-30.151253,,*6F
$GPGGA,000901,5537.3709,N,03806.8263,E,1,5,1.5,275.09152,-29.607246,,*68
$GPGGA,000902,5537.3731,N,03806.8301,E,1,5,1.5,284.61001,-30.853759,,*6E
$GPGGA,000903,5537.375,N,03806.8333,E,1,5,1.5,284.51237,-29.113399,,*50
$GPGGA,000904,5537.3732,N,03806.8258,E,1,5,1.5,278.95425,-29.198369,,*6D
$GPGGA,000905,5537.3759,N,03806.8313,E,1,5,1.5,277.67848,-29.496134,,*6B
$GPGGA,000906,5537.3758,N,03806.8286,E,1,5,1.5,284.91932,-30.847967,,*6B
$GPGGA,000907,5537.3758,N,03806.8265,E,1,5,1.5,284.86888,-30.219308,,*63
$GPGGA,000908,5537.3765,N,03806.8261,E,1,5,1.5,277.38492,-29.611633,,*61
$GPGGA,000909,5537.3787,N,03806.83,E,1,5,1.5,281.19348,-30.997587,,*65
$GPGGA,000910,5537.3809,N,03806.834,E,1,5,1.5,284.63274,-29.424378,,*5D
$GPGGA,000911,5537.3806,N,03806.8308,E,1,5,1.5,284.7461,-30.075009,,*52
$GPGGA,000912,5537.3796,N,03806.826,E,1,5,1.5,283.01325,-30.252658,,*5B
$GPGGA,000913,5537.3801,N,03806.825,E,1,5,1.5,278.9568,-29.210581,,*62
$GPGGA,000914,5537.3807,N,03806.8246,E,1,5,1.5,280.03043,-30.73818,,*57
$GPGGA,000915,5537.3834,N,03806.8298,E,1,5,1.5,276.33088,-30.683407,,*63
$GPGGA,000916,5537.3837,N,03806.8285,E,1,5,1.5,280.5319,-29.392476,,*53
$GPGGA,000917,5537.3859,N,03806.8321,E,1,5,1.5,275.76211,-30.629845,,*63
$GPGGA,000918,5537.385,N,03806.8276,E,1,5,1.5,275.69214,-29.154768,,*58
$GPGGA,000919,5537.3868,N,03806.8302,E,1,5,1.5,280.60769,-30.025194,,*66
$GPGGA,000920,5537.3846,N,03806.822,E,1,5,1.5,279.47605,-29.125608,,*52
$GPGGA,000921,5537.3879,N,03806.8289,E,1,5,1.5,279.7124,-29.622421,,*55
$GPGGA,000922,5537.3879,N,03806.8266,E,1,5,1.5,282.27059,-30.288805,,*6C
$GPGGA,000923,5537.3894,N,03806.8287,E,1,5,1.5,278.56952,-30.160405,,*69
$GPGGA,000924,5537.3902,N,03806.8286,E,1,5,1.5,276.37183,-29.034125,,*63
$GPGGA,000925,5537.3883,N,03806.8212,E,1,5,1.5,282.80591,-30.154228,,*66
$GPGGA,000926,5537.3891,N,03806.8211,E,1,5,1.5,283.01496,-29.293282,,*6B
$GPGGA,000927,5537.3904,N,03806.8226,E,1,5,1.5,281.17886,-30.579984,,*6D
$GPGGA,000928,5537.3919,N,03806.8244,E,1,5,1.5,275.6348,-29.101706,,*5F
$GPGGA,000929,5537.3934,N,03806.8263,E,1,5,1.5,280.2721,-30.766626,,*5D
$GPGGA,000930,5537.3941,N,03806.8261,E,1,5,1.5,279.04429,-30.398585,,*61
$GPGGA,000931,5537.3956,N,03806.8279,E,1,5,1.5,278.07861,-30.807345,,*6A
$GPGGA,000932,5537.3955,N,03806.8255,E,1,5,1.5,279.21836,-29.877706,,*6F
$GPGGA,000933,5537.3962,N,03806.8251,E,1,5,1.5,278.65757,-30.802975,,*67
$GPGGA,000934,5537.3955,N,03806.8212,E,1,5,1.5,283.37092,-29.701554,,*65
$GPGGA,000935,5537.3958,N,03806.8199,E,1,5,1.5,275.05305,-30.249936,,*65
$GPGGA,000936,5537.3957,N,03806.8175,E,1,5,1.5,275.01217,-29.891215,,*60
$GPGGA,000937,5537.3967,N,03806.818,E,1,5,1.5,282.66198,-29.885201,,*55
$GPGGA,000938,5537.3982,N,03806.8197,E,1,5,1.5,283.67396,-29.204545,,*6F
$GPGGA,000939,5537.3984,N,03806.8181,E,1,5,1.5,280.23873,-29.300801,,*64
$GPGGA,000940,5537.4001,N,03806.8206,E,1,5,1.5,283.99062,-30.315125,,*6C
$GPGGA,000941,5537.4022,N,03806.8239,E,1,5,1.5,280.72401,-30.640356,,*64
$GPGGA,000942,5537.4006,N,03806.8178,E,1,5,1.5,283.8227,-30.104497,,*56
$GPGGA,000943,5537.4012,N,03806.8172,E,1,5,1.5,279.08544,-29.690142,,*60
$GPGGA,000944,5537.4015,N,03806.8157,E,1,5,1.5,276.11126,-30.880185,,*6C
$GPGGA,000945,5537.4047,N,03806.822,E,1,5,1.5,279.35731,-30.677182,,*51
$GPGGA,000946,5537.4042,N,03806.8186,E,1,5,1.5,284.15004,-29.33199,,*5D
$GPGGA,000947,5537.4053,N,03806.8193,E,1,5,1.5,278.06714,-30.08688,,*58
$GPGGA,000948,5537.4071,N,03806.8218,E,1,5,1.5,284.96321,-29.039071,,*65
$GPGGA,000949,5537.4088,N,03806.8243,E,1,5,1.5,276.23639,-29.812673,,*66
$GPGGA,000950,5537.406,N,03806.8149,E,1,5,1.5,280.47596,-29.340308,,*59
$GPGGA,000951,5537.4072,N,03806.816,E,1,5,1.5,277.1429,-30.950222,,*65
$GPGGA,000952,5537.4082,N,03806.8166,E,1,5,1.5,281.16564,-30.380444,,*69
$GPGGA,000953,5537.4104,N,03806.8201,E,1,5,1.5,282.03259,-30.548636,,*6E
$GPGGA,000954,5537.4122,N,03806.8224,E,1,5,1.5,281.88091,-29.144506,,*6C
$GPGGA,000955,5537.4108,N,03806.8168,E,1,5,1.5,280.96783,-30.631219,,*60
$GPGGA,000956,5537.4102,N,03806.8133,E,1,5,1.5,284.51619,-30.293013,,*6E
$GPGGA,000957,5537.4112,N,03806.8138,E,1,5,1.5,281.00004,-29.798257,,*6A
$GPGGA,000958,5537.4127,N,03806.8156,E,1,5,1.5,277.2293,-30.610464,,*53
$GPGGA,000959,5537.4147,N,03806.8185,E,1,5,1.5,278.85403,-30.72433,,*55
$GPGGA,001000,5537.4161,N,03806.8199,E,1,5,1.5,284.88939,-30.879601,,*62
$GPGGA,001001,5537.413,N,03806.8103,E,1,5,1.5,280.31155,-29.86266,,*65
$GPGGA,001002,5537.4155,N,03806.8144,E,1,5,1.5,280.44291,-29.99396,,*5F
$GPGGA,001003,5537.4157,N,03806.8128,E,1,5,1.5,283.48152,-30.668986,,*6E
$GPGGA,001004,5537.4166,N,03806.8131,E,1,5,1.5,281.8851,-29.121202,,*5A
$GPGGA,001005,5537.4163,N,03806.8104,E,1,5,1.5,278.14456,-30.657472,,*67
$GPGGA,001006,5537.4194,N,03806.816,E,1,5,1.5,284.52433,-30.729723,,*53
$GPGGA,001007,5537.4194,N,03806.8141,E,1,5,1.5,278.35916,-29.601149,,*60
$GPGGA,001008,5537.4195,N,03806.8124,E,1,5,1.5,283.227,-30.291047,,*6C
$GPGGA,001009,5537.4185,N,03806.8077,E,1,5,1.5,280.51711,-29.189384,,*62
$GPGGA,001010,5537.4205,N,03806.8108,E,1,5,1.5,284.33038,-29.470502,,*6F
$GPGGA,001011,5537.4234,N,03806.8159,E,1,5,1.5,284.03563,-29.45488,,*51
$GPGGA,001012,5537.4249,N,03806.8174,E,1,5,1.5,281.91095,-30.618668,,*6F
$GPGGA,001013,5537.4243,N,03806.8139,E,1,5,1.5,276.87374,-30.282714,,*63
$GPGGA,001014,5537.4233,N,03806.8095,E,1,5,1.5,278.0956,-29.376124,,*58
$GPGGA,001015,5537.4263,N,03806.8151,E,1,5,1.5,283.06032,-29.313896,,*6F
$GPGGA,001016,5537.4234,N,03806.8059,E,1,5,1.5,282.10347,-29.203956,,*6D
$GPGGA,001017,5537.428,N,03806.8151,E,1,5,1.5,284.42143,-30.555969,,*5D
$GPGGA,001018,5537.4262,N,03806.8086,E,1,5,1.5,277.70561,-30.652561,,*6C
$GPGGA,001019,5537.428,N,03806.8112,E,1,5,1.5,283.69431,-29.013134,,*55
$GPGGA,001020,5537.4287,N,03806.8109,E,1,5,1.5,283.79019,-29.181226,,*67
$GPGGA,001021,5537.4284,N,03806.8081,E,1,5,1.5,281.21559,-29.648409,,*63
$GPGGA,001022,5537.4307,N,03806.8118,E,1,5,1.5,277.72063,-30.340989,,*68
$GPGGA,001023,5537.4298,N,03806.8077,E,1,5,1.5,282.37127,-29.990316,,*6F
$GPGGA,001024,5537.4307,N,03806.8079,E,1,5,1.5,276.17426,-30.13328,,*5B
$GPGGA,001025,5537.4324,N,03806.8099,E,1,5,1.5,277.9959,-30.696607,,*5D
$GPGGA,001026,5537.4333,N,03806.81,E,1,5,1.5,283.14886,-29.35685,,*50
$GPGGA,001027,5537.4311,N,03806.8028,E,1,5,1.5,284.90843,-29.387509,,*65
$GPGGA,001028,5537.4343,N,03806.8085,E,1,5,1.5,279.82478,-29.755469,,*63
$GPGGA,001029,5537.4356,N,03806.8098,E,1,5,1.5,278.77234,-30.061014,,*69
$GPGGA,001030,5537.4352,N,03806.8067,E,1,5,1.5,275.96993,-30.778919,,*6A
$GPGGA,001031,5537.4359,N,03806.8066,E,1,5,1.5,276.46749,-29.402688,,*67
$GPGGA,001032,5537.4347,N,03806.8018,E,1,5,1.5,277.57529,-30.769755,,*60
$GPGGA,001033,5537.4355,N,03806.8017,E,1,5,1.5,280.16109,-30.30252,,*5F
$GPGGA,001034,5537.4359,N,03806.8006,E,1,5,1.5,280.40836,-29.388361,,*6B
$GPGGA,001035,5537.4381,N,03806.8041,E,1,5,1.5,280.26557,-29.891298,,*62
$GPGGA,001036,5537.4403,N,03806.8073,E,1,5,1.5,284.17213,-29.088773,,*6C
$GPGGA,001037,5537.4385,N,03806.8011,E,1,5,1.5,279.47046,-30.409018,,*6A
$GPGGA,001038,5537.4396,N,03806.8017,E,1,5,1.5,276.95696,-30.457797,,*61
$GPGGA,001039,5537.4411,N,03806.8035,E,1,5,1.5,275.03616,-30.21782,,*5D
$GPGGA,001040,5537.4418,N,03806.8032,E,1,5,1.5,284.67295,-29.229896,,*66
$GPGGA,001041,5537.4433,N,03806.8047,E,1,5,1.5,281.53683,-29.271964,,*6C
$GPGGA,001042,5537.4439,N,03806.8043,E,1,5,1.5,275.1503,-29.790367,,*55
$GPGGA,001043,5537.4424,N,03806.7987,E,1,5,1.5,281.24004,-30.357327,,*6B
$GPGGA,001044,5537.4452,N,03806.8035,E,1,5,1.5,281.59511,-30.979295,,*67
$GPGGA,001045,5537.4438,N,03806.7983,E,1,5,1.5,284.31061,-30.412941,,*6A
$GPGGA,001046,5537.447,N,03806.8038,E,1,5,1.5,275.08815,-29.008789,,*51
$GPGGA,001047,5537.4448,N,03806.7967,E,1,5,1.5,276.02621,-29.247053,,*6E
$GPGGA,001048,5537.4489,N,03806.8043,E,1,5,1.5,280.81411,-29.306001,,*6C
$GPGGA,001049,5537.4493,N,03806.8034,E,1,5,1.5,283.19215,-29.960223,,*6E
$GPGGA,001050,5537.4501,N,03806.8033,E,1,5,1.5,277.70886,-30.094425,,*65
$GPGGA,001051,5537.4521,N,03806.806,E,1,5,1.5,276.94286,-30.387951,,*5E
$GPGGA,001052,5537.4488,N,03806.7965,E,1,5,1.5,276.21207,-29.525972,,*6C
$GPGGA,001053,5537.4524,N,03806.8029,E,1,5,1.5,284.11768,-29.875334,,*66
$GPGGA,001054,5537.45,N,03806.7955,E,1,5,1.5,283.81289,-29.17634,,*57
$GPGGA,001055,5537.4541,N,03806.8031,E,1,5,1.5,284.39827,-30.696258,,*64
$GPGGA,001056,5537.4511,N,03806.7943,E,1,5,1.5,283.07611,-29.716149,,*62
$GPGGA,001057,5537.4548,N,03806.8008,E,1,5,1.5,275.39529,-30.429615,,*63
$GPGGA,001058,5537.4559,N,03806.8015,E,1,5,1.5,281.83617,-29.570369,,*6F
$GPGGA,001059,5537.4541,N,03806.7955,E,1,5,1.5,282.87177,-30.605057,,*64
$GPGGA,001100,5537.4584,N,03806.8035,E,1,5,1.5,280.24683,-30.378524,,*69
$GPGGA,001101,5537.4587,N,03806.8023,E,1,5,1.5,278.29079,-29.930781,,*66
$GPGGA,001102,5537.4568,N,03806.796,E,1,5,1.5,284.37358,-30.068177,,*5A
$GPGGA,001103,5537.4581,N,03806.7971,E,1,5,1.5,280.87469,-29.415839,,*63
$GPGGA,001104,5537.4602,N,03806.8,E,1,5,1.5,281.01673,-29.354199,,*5B
$GPGGA,001105,5537.4575,N,03806.7921,E,1,5,1.5,276.36372,-29.699488,,*65
$GPGGA,001106,5537.4607,N,03806.7974,E,1,5,1.5,283.45234,-30.476319,,*69
$GPGGA,001107,5537.4597,N,03806.7933,E,1,5,1.5,279.66124,-29.900064,,*6A
$GPGGA,001108,5537.4612,N,03806.7948,E,1,5,1.5,282.77866,-29.987451,,*61
$GPGGA,001109,5537.462,N,03806.7948,E,1,5,1.5,283.55325,-30.295894,,*59
$GPGGA,001110,5537.4608,N,03806.7901,E,1,5,1.5,284.55553,-30.405308,,*67
$GPGGA,001111,5537.4644,N,03806.7964,E,1,5,1.5,280.68953,-30.150729,,*69
$GPGGA,001112,5537.464,N,03806.7936,E,1,5,1.5,275.42425,-30.539793,,*5D
$GPGGA,001113,5537.4668,N,03806.798,E,1,5,1.5,281.01412,-30.996221,,*56
$GPGGA,001114,5537.4633,N,03806.7885,E,1,5,1.5,279.39544,-29.308673,,*63
$GPGGA,001115,5537.4665,N,03806.7938,E,1,5,1.5,281.83244,-30.683922,,*62
$GPGGA,001116,5537.467,N,03806.7931,E,1,5,1.5,278.49233,-30.854036,,*54
$GPGGA,001117,5537.4701,N,03806.7981,E,1,5,1.5,282.70261,-30.519318,,*6A
$GPGGA,001118,5537.4709,N,03806.798,E,1,5,1.5,277.43706,-29.772024,,*59
$GPGGA,001119,5537.4671,N,03806.7878,E,1,5,1.5,282.33859,-30.790393,,*63
$GPGGA,001120,5537.472,N,03806.7966,E,1,5,1.5,277.06741,-30.268353,,*56
$GPGGA,001121,5537.4712,N,03806.7931,E,1,5,1.5,279.71242,-29.003225,,*6B
$GPGGA,001122,5537.4737,N,03806.7969,E,1,5,1.5,276.17151,-30.052111,,*64
$GPGGA,001123,5537.4697,N,03806.7862,E,1,5,1.5,276.54327,-30.137111,,*62
$GPGGA,001124,5537.4748,N,03806.7955,E,1,5,1.5,276.42806,-30.78034,,*50
$GPGGA,001125,5537.4757,N,03806.7957,E,1,5,1.5,283.36065,-29.231731,,*6C
$GPGGA,001126,5537.474,N,03806.7901,E,1,5,1.5,280.13945,-29.865894,,*5E
$GPGGA,001127,5537.4737,N,03806.7877,E,1,5,1.5,276.32937,-29.618829,,*62
$GPGGA,001128,5537.4732,N,03806.7848,E,1,5,1.5,275.44541,-29.461082,,*6E
$GPGGA,001129,5537.4767,N,03806.7907,E,1,5,1.5,277.02372,-29.110942,,*65
$GPGGA,001130,5537.4744,N,03806.7838,E,1,5,1.5,278.70456,-29.429595,,*63
$GPGGA,001131,5537.4757,N,03806.7849,E,1,5,1.5,282.33834,-29.459645,,*65
$GPGGA,001132,5537.4804,N,03806.7932,E,1,5,1.5,278.73153,-30.119209,,*6E
$GPGGA,001133,5537.4777,N,03806.7856,E,1,5,1.5,276.72334,-29.395839,,*6C
$GPGGA,001134,5537.4794,N,03806.7875,E,1,5,1.5,282.57695,-29.74777,,*5C
$GPGGA,001135,5537.4801,N,03806.7872,E,1,5,1.5,283.9311,-30.564564,,*56
$GPGGA,001136,5537.4817,N,03806.789,E,1,5,1.5,277.53793,-30.214965,,*59
$GPGGA,001137,5537.4832,N,03806.7903,E,1,5,1.5,280.46238,-30.666844,,*6F
$GPGGA,001138,5537.4797,N,03806.7811,E,1,5,1.5,279.08658,-30.152367,,*66
$GPGGA,001139,5537.4831,N,03806.7866,E,1,5,1.5,277.899,-29.121065,,*6C
$GPGGA,001140,5537.4853,N,03806.7895,E,1,5,1.5,279.40392,-29.024267,,*64
$GPGGA,001141,5537.4863,N,03806.7898,E,1,5,1.5,276.31088,-29.556381,,*63
$GPGGA,001142,5537.4846,N,03806.7845,E,1,5,1.5,276.20676,-29.091787,,*6C
$GPGGA,001143,5537.4873,N,03806.7884,E,1,5,1.5,275.92473,-30.450657,,*66
$GPGGA,001144,5537.4875,N,03806.7869,E,1,5,1.5,276.55511,-29.052769,,*6B
$GPGGA,001145,5537.4867,N,03806.7835,E,1,5,1.5,279.24195,-30.225437,,*63
$GPGGA,001146,5537.4867,N,03806.7818,E,1,5,1.5,275.32751,-30.169951,,*6C
$GPGGA,001147,5537.4903,N,03806.7876,E,1,5,1.5,280.79329,-30.110447,,*6C
$GPGGA,001148,5537.4892,N,03806.7836,E,1,5,1.5,283.05183,-30.699922,,*6C
$GPGGA,001149,5537.4887,N,03806.7808,E,1,5,1.5,276.7177,-29.090128,,*52
$GPGGA,001150,5537.4895,N,03806.7808,E,1,5,1.5,282.77907,-29.435359,,*65
$GPGGA,001151,5537.4897,N,03806.7793,E,1,5,1.5,281.35291,-30.244699,,*6B
$GPGGA,001152,5537.4905,N,03806.7793,E,1,5,1.5,280.68757,-30.173041,,*60
$GPGGA,001153,5537.4943,N,03806.7854,E,1,5,1.5,283.02522,-30.798256,,*6F
$GPGGA,001154,5537.493,N,03806.781,E,1,5,1.5,280.10527,-29.920153,,*6A
$GPGGA,001155,5537.4944,N,03806.7821,E,1,5,1.5,276.22599,-29.186397,,*69
$GPGGA,001156,5537.497,N,03806.7858,E,1,5,1.5,283.63738,-30.651362,,*5A
$GPGGA,001157,5537.4977,N,03806.7854,E,1,5,1.5,282.36244,-29.455879,,*60
$GPGGA,001158,5537.4949,N,03806.7781,E,1,5,1.5,283.08703,-29.429181,,*6A
$GPGGA,001159,5537.4958,N,03806.7781,E,1,5,1.5,276.27004,-30.30881,,*51
$GPGGA,001200,5537.496,N,03806.7769,E,1,5,1.5,281.85638,-30.700109,,*57
$GPGGA,001201,5537.5003,N,03806.7839,E,1,5,1.5,280.67418,-29.103868,,*6F
$GPGGA,001202,5537.496,N,03806.7734,E,1,5,1.5,279.51575,-29.579058,,*58
$GPGGA,001203,5537.4982,N,03806.7761,E,1,5,1.5,275.7886,-30.127052,,*56
$GPGGA,001204,5537.4997,N,03806.7776,E,1,5,1.5,283.22813,-29.934555,,*61
$GPGGA,001205,5537.5002,N,03806.7768,E,1,5,1.5,276.23796,-29.444469,,*66
$GPGGA,001206,5537.5008,N,03806.7764,E,1,5,1.5,275.71676,-30.08723,,*51
$GPGGA,001207,5537.4998,N,03806.7727,E,1,5,1.5,282.4922,-29.649645,,*58
$GPGGA,001208,5537.5022,N,03806.7758,E,1,5,1.5,284.4631,-29.934084,,*53
$GPGGA,001209,5537.5048,N,03806.7794,E,1,5,1.5,279.00005,-30.817871,,*63
$GPGGA,001210,5537.5059,N,03806.7798,E,1,5,1.5,281.82279,-30.311035,,*66
$GPGGA,001211,5537.503,N,03806.7724,E,1,5,1.5,276.20931,-30.980081,,*55
$GPGGA,001212,5537.5064,N,03806.7776,E,1,5,1.5,280.74711,-30.406252,,*6B
$GPGGA,001213,5537.5061,N,03806.7752,E,1,5,1.5,278.66133,-30.428761,,*62
$GPGGA,001214,5537.509,N,03806.7792,E,1,5,1.5,275.79736,-30.036765,,*58
$GPGGA,001215,5537.5069,N,03806.7734,E,1,5,1.5,276.34723,-29.168387,,*67
$GPGGA,001216,5537.5085,N,03806.775,E,1,5,1.5,284.13975,-30.600855,,*54
$GPGGA,001217,5537.509,N,03806.7742,E,1,5,1.5,281.51328,-29.822894,,*58
$GPGGA,001218,5537.5113,N,03806.7771,E,1,5,1.5,276.20824,-29.518732,,*63
$GPGGA,001219,5537.509,N,03806.7709,E,1,5,1.5,278.10307,-29.312683,,*57
$GPGGA,001220,5537.5131,N,03806.7774,E,1,5,1.5,280.72283,-29.973986,,*64
$GPGGA,001221,5537.51,N,03806.7695,E,1,5,1.5,276.02386,-29.61365,,*5E
$GPGGA,001222,5537.5141,N,03806.7759,E,1,5,1.5,283.75088,-30.768326,,*6F
$GPGGA,001223,5537.5127,N,03806.7714,E,1,5,1.5,277.42466,-30.91075,,*58
$GPGGA,001224,5537.5128,N,03806.77,E,1,5,1.5,276.49881,-30.102097,,*6D
$GPGGA,001225,5537.5119,N,03806.7665,E,1,5,1.5,277.17351,-29.458598,,*68
$GPGGA,001226,5537.5124,N,03806.7659,E,1,5,1.5,281.52186,-30.09308,,*5D
$GPGGA,001227,5537.5167,N,03806.7727,E,1,5,1.5,284.72151,-29.461589,,*63
$GPGGA,001228,5537.5176,N,03806.7729,E,1,5,1.5,282.03925,-29.846068,,*6A
$GPGGA,001229,5537.5183,N,03806.7725,E,1,5,1.5,279.54105,-29.286061,,*6E
$GPGGA,001230,5537.5159,N,03806.7661,E,1,5,1.5,284.04234,-29.885732,,*6E
$GPGGA,001231,5537.5172,N,03806.7672,E,1,5,1.5,277.32574,-29.316983,,*6B
$GPGGA,001232,5537.5184,N,03806.7677,E,1,5,1.5,275.88324,-29.765262,,*60
$GPGGA,001233,5537.5201,N,03806.7695,E,1,5,1.5,279.13962,-29.771675,,*62
$GPGGA,001234,5537.5226,N,03806.7727,E,1,5,1.5,275.03144,-29.66329,,*54
$GPGGA,001235,5537.5205,N,03806.767,E,1,5,1.5,280.70301,-29.783062,,*5A
$GPGGA,001236,5537.5187,N,03806.7618,E,1,5,1.5,276.68583,-29.781594,,*6C
$GPGGA,001237,5537.5194,N,03806.7616,E,1,5,1.5,284.00264,-30.064954,,*68
$GPGGA,001238,5537.5254,N,03806.7715,E,1,5,1.5,283.92975,-30.356087,,*68
$GPGGA,001239,5537.525,N,03806.769,E,1,5,1.5,278.41346,-30.471863,,*61
$GPGGA,001240,5537.5249,N,03806.7672,E,1,5,1.5,284.11647,-30.093586,,*67
$GPGGA,001241,5537.5273,N,03806.7702,E,1,5,1.5,283.5197,-30.765849,,*51
$GPGGA,001242,5537.525,N,03806.7641,E,1,5,1.5,281.1727,-29.846854,,*64
$GPGGA,001243,5537.526,N,03806.7643,E,1,5,1.5,280.82265,-29.902894,,*50
$GPGGA,001244,5537.5253,N,03806.7614,E,1,5,1.5,278.50747,-29.340438,,*6E
$GPGGA,001245,5537.5266,N,03806.7624,E,1,5,1.5,276.52258,-30.151315,,*6F
$GPGGA,001246,5537.5267,N,03806.7608,E,1,5,1.5,282.21406,-29.759774,,*64
$GPGGA,001247,5537.5297,N,03806.765,E,1,5,1.5,282.5625,-29.354698,,*68
$GPGGA,001248,5537.5282,N,03806.7605,E,1,5,1.5,279.25239,-30.016084,,*6A
$GPGGA,001249,5537.5329,N,03806.7677,E,1,5,1.5,278.12108,-29.651872,,*66
$GPGGA,001250,5537.5322,N,03806.7648,E,1,5,1.5,280.29933,-29.499547,,*6B
$GPGGA,001251,5537.5303,N,03806.7597,E,1,5,1.5,278.74223,-29.966411,,*62
$GPGGA,001252,5537.5316,N,03806.7605,E,1,5,1.5,281.95454,-29.133257,,*6E
$GPGGA,001253,5537.5355,N,03806.7663,E,1,5,1.5,275.28904,-30.578166,,*6F
$GPGGA,001254,5537.5307,N,03806.7556,E,1,5,1.5,277.98921,-29.540456,,*61
$GPGGA,001255,5537.5353,N,03806.7626,E,1,5,1.5,279.90929,-29.08933,,*5C
$GPGGA,001256,5537.537,N,03806.7643,E,1,5,1.5,284.32536,-30.137553,,*5A
$GPGGA,001257,5537.5364,N,03806.7614,E,1,5,1.5,281.20026,-30.097532,,*62
$GPGGA,001258,5537.5357,N,03806.7585,E,1,5,1.5,277.43301,-29.965424,,*66
$GPGGA,001259,5537.5389,N,03806.7629,E,1,5,1.5,275.76028,-29.888469,,*66
$GPGGA,001300,5537.536,N,03806.756,E,1,5,1.5,280.8329,-30.07149,,*63
$GPGGA,001301,5537.5381,N,03806.7582,E,1,5,1.5,278.31442,-30.460558,,*67
$GPGGA,001302,5537.5416,N,03806.7631,E,1,5,1.5,279.39211,-30.25508,,*5F
$GPGGA,001303,5537.5392,N,03806.7571,E,1,5,1.5,277.60195,-30.194129,,*63
$GPGGA,001304,5537.5386,N,03806.7545,E,1,5,1.5,276.10022,-29.988573,,*6B
$GPGGA,001305,5537.5392,N,03806.754,E,1,5,1.5,280.21302,-29.477645,,*5B
$GPGGA,001306,5537.5432,N,03806.7598,E,1,5,1.5,281.01337,-30.326821,,*62
$GPGGA,001307,5537.5437,N,03806.7591,E,1,5,1.5,279.56205,-30.603454,,*66
$GPGGA,001308,5537.5427,N,03806.7557,E,1,5,1.5,277.05386,-30.617356,,*60
$GPGGA,001309,5537.5451,N,03806.7585,E,1,5,1.5,282.18532,-30.245573,,*62
$GPGGA,001310,5537.5422,N,03806.7515,E,1,5,1.5,282.35261,-30.823873,,*6E
$GPGGA,001311,5537.5464,N,03806.7577,E,1,5,1.5,278.55033,-29.831999,,*61
$GPGGA,001312,5537.5477,N,03806.7586,E,1,5,1.5,283.82226,-29.275503,,*63
$GPGGA,001313,5537.5487,N,03806.7588,E,1,5,1.5,280.56431,-30.124059,,*6C
$GPGGA,001314,5537.5479,N,03806.7558,E,1,5,1.5,281.64802,-30.654356,,*67
$GPGGA,001315,5537.5501,N,03806.7582,E,1,5,1.5,282.96948,-29.315286,,*6A
$GPGGA,001316,5537.5455,N,03806.7482,E,1,5,1.5,279.3842,-30.033855,,*50
$GPGGA,001317,5537.549,N,03806.753,E,1,5,1.5,280.81258,-30.962324,,*6D
$GPGGA,001318,5537.5483,N,03806.7501,E,1,5,1.5,279.34357,-29.780344,,*68
$GPGGA,001319,5537.5512,N,03806.754,E,1,5,1.5,280.17601,-29.060373,,*59
$GPGGA,001320,5537.5533,N,03806.7561,E,1,5,1.5,277.96725,-29.130485,,*6F
$GPGGA,001321,5537.5491,N,03806.747,E,1,5,1.5,284.35832,-30.575654,,*59
$GPGGA,001322,5537.5537,N,03806.7537,E,1,5,1.5,280.86252,-29.256928,,*6F
$GPGGA,001323,5537.5535,N,03806.7519,E,1,5,1.5,282.69126,-30.747413,,*6B
$GPGGA,001324,5537.5509,N,03806.7455,E,1,5,1.5,282.19618,-29.634768,,*65
$GPGGA,001325,5537.5559,N,03806.753,E,1,5,1.5,284.18122,-29.471958,,*54
$GPGGA,001326,5537.5539,N,03806.7478,E,1,5,1.5,278.13079,-30.521281,,*68
$GPGGA,001327,5537.5559,N,03806.7499,E,1,5,1.5,283.16228,-30.081217,,*67
$GPGGA,001328,5537.5551,N,03806.747,E,1,5,1.5,278.99143,-29.36144,,*6B
$GPGGA,001329,5537.5564,N,03806.7476,E,1,5,1.5,279.14845,-30.828339,,*66
$GPGGA,001330,5537.5596,N,03806.7519,E,1,5,1.5,279.85043,-29.931717,,*64
$GPGGA,001331,5537.5596,N,03806.7503,E,1,5,1.5,278.07279,-30.392818,,*65
$GPGGA,001332,5537.5603,N,03806.75,E,1,5,1.5,284.21753,-30.03466,,*5E
$GPGGA,001333,5537.558,N,03806.7445,E,1,5,1.5,277.10054,-29.71765,,*64
$GPGGA,001334,5537.5611,N,03806.7484,E,1,5,1.5,280.52305,-30.556755,,*67
$GPGGA,001335,5537.5619,N,03806.7483,E,1,5,1.5,280.20413,-29.491028,,*63
$GPGGA,001336,5537.5605,N,03806.7443,E,1,5,1.5,276.08152,-29.702073,,*65
$GPGGA,001337,5537.5645,N,03806.7498,E,1,5,1.5,276.68734,-29.585058,,*62
$GPGGA,001338,5537.561,N,03806.7421,E,1,5,1.5,278.22325,-29.214184,,*54
$GPGGA,001339,5537.5648,N,03806.7472,E,1,5,1.5,279.84618,-29.764011,,*67
$GPGGA,001340,5537.5628,N,03806.7422,E,1,5,1.5,277.28142,-30.398873,,*69
$GPGGA,001341,5537.5652,N,03806.7448,E,1,5,1.5,277.95399,-29.974608,,*69
$GPGGA,001342,5537.5634,N,03806.7402,E,1,5,1.5,281.12209,-30.76012,,*54
$GPGGA,001343,5537.5643,N,03806.7403,E,1,5,1.5,284.7583,-29.530834,,*53
$GPGGA,001344,5537.568,N,03806.7453,E,1,5,1.5,275.90467,-29.061867,,*52
$GPGGA,001345,5537.57,N,03806.7472,E,1,5,1.5,281.67682,-29.505783,,*61
