$GPRMC,000000,A,5536.9726,N,03806.9,E,0,90,010416,,*1D
$GPRMC,000001,A,5536.9734,N,03806.8965,E,7.7,291.1,010416,,*16
$GPRMC,000002,A,5536.9741,N,03806.9031,E,13.8,78.4,010416,,*14
$GPRMC,000003,A,5536.9749,N,03806.894,E,18.9,278.2,010416,,*1D
$GPRMC,000004,A,5536.9756,N,03806.898,E,8.6,71.3,010416,,*1C
$GPRMC,000005,A,5536.9764,N,03806.902,E,8.8,71.4,010416,,*17
$GPRMC,000006,A,5536.9771,N,03806.9015,E,2.9,341.5,010416,,*1C
$GPRMC,000007,A,5536.9779,N,03806.9042,E,6.2,62.9,010416,,*26
$GPRMC,000008,A,5536.9786,N,03806.9022,E,4.9,303.9,010416,,*12
$GPRMC,000009,A,5536.9794,N,03806.9045,E,5.5,59.5,010416,,*2C
$GPRMC,000010,A,5536.9801,N,03806.8948,E,20.3,277.3,010416,,*2B
$GPRMC,000011,A,5536.9809,N,03806.9007,E,12.5,76.7,010416,,*11
$GPRMC,000012,A,5536.9817,N,03806.9019,E,3.8,41.9,010416,,*25
$GPRMC,000013,A,5536.9824,N,03806.9027,E,3.2,29.5,010416,,*21
$GPRMC,000014,A,5536.9831,N,03806.8963,E,13.4,281.1,010416,,*29
$GPRMC,000015,A,5536.9839,N,03806.9005,E,9,71.3,010416,,*36
$GPRMC,000016,A,5536.9846,N,03806.8967,E,8.2,288.7,010416,,*1C
$GPRMC,000017,A,5536.9854,N,03806.8967,E,2.8,359.2,010416,,*16
$GPRMC,000018,A,5536.9861,N,03806.8965,E,2.8,352.1,010416,,*15
$GPRMC,000019,A,5536.987,N,03806.9045,E,16.8,79.4,010416,,*24
$GPRMC,000020,A,5536.9877,N,03806.9017,E,6.3,294.7,010416,,*16
$GPRMC,000021,A,5536.9884,N,03806.8976,E,9,286.7,010416,,*05
$GPRMC,000022,A,5536.9893,N,03806.9051,E,15.8,78.6,010416,,*14
$GPRMC,000023,A,5536.9899,N,03806.8965,E,18,277.4,010416,,*34
$GPRMC,000024,A,5536.9907,N,03806.8976,E,3.7,40.5,010416,,*23
$GPRMC,000025,A,5536.9914,N,03806.8982,E,3,23.1,010416,,*33
$GPRMC,000026,A,5536.9922,N,03806.8973,E,3.2,327.2,010416,,*13
$GPRMC,000027,A,5536.993,N,03806.9006,E,7.4,66.4,010416,,*19
$GPRMC,000028,A,5536.9937,N,03806.8996,E,3.4,322,010416,,*0D
$GPRMC,000029,A,5536.9944,N,03806.8978,E,4.6,305.1,010416,,*17
$GPRMC,000030,A,5536.9952,N,03806.9009,E,7.1,65.3,010416,,*25
$GPRMC,000031,A,5536.996,N,03806.8998,E,3.5,319.3,010416,,*2D
$GPRMC,000032,A,5536.9967,N,03806.899,E,3.2,328.8,010416,,*2F
$GPRMC,000033,A,5536.9974,N,03806.897,E,4.9,301.9,010416,,*24
$GPRMC,000034,A,5536.9983,N,03806.9013,E,9.5,71,010416,,*34
$GPRMC,000035,A,5536.999,N,03806.8986,E,6.2,294.2,010416,,*2E
$GPRMC,000036,A,5536.9999,N,03806.9047,E,13.1,75.6,010416,,*1F
$GPRMC,000037,A,5537.0004,N,03806.8942,E,21.8,275,010416,,*34
$GPRMC,000038,A,5537.0012,N,03806.8994,E,11.3,73.5,010416,,*10
$GPRMC,000039,A,5537.0019,N,03806.8968,E,6,294.9,010416,,*05
$GPRMC,000040,A,5537.0027,N,03806.8986,E,4.7,51.8,010416,,*27
$GPRMC,000041,A,5537.0034,N,03806.897,E,4.3,307.8,010416,,*29
$GPRMC,000042,A,5537.0042,N,03806.8951,E,4.6,304,010416,,*08
$GPRMC,000043,A,5537.0051,N,03806.9029,E,16.5,77.7,010416,,*12
$GPRMC,000044,A,5537.0057,N,03806.8961,E,14.2,278.4,010416,,*2C
$GPRMC,000045,A,5537.0064,N,03806.8949,E,3.6,316.2,010416,,*1A
$GPRMC,000046,A,5537.0073,N,03806.9017,E,14.6,76.3,010416,,*1E
$GPRMC,000047,A,5537.0079,N,03806.8953,E,13.4,278.9,010416,,*2E
$GPRMC,000048,A,5537.0089,N,03806.9018,E,13.9,75.6,010416,,*14
$GPRMC,000049,A,5537.0097,N,03806.9035,E,4.6,50.1,010416,,*2C
$GPRMC,000050,A,5537.0103,N,03806.8983,E,11.1,281.3,010416,,*22
$GPRMC,000051,A,5537.011,N,03806.8983,E,2.8,0.7,010416,,*25
$GPRMC,000052,A,5537.012,N,03806.9039,E,12.1,73.5,010416,,*22
$GPRMC,000053,A,5537.0124,N,03806.8947,E,19.1,275,010416,,*32
$GPRMC,000054,A,5537.0132,N,03806.8957,E,3.5,35.9,010416,,*2D
$GPRMC,000055,A,5537.0141,N,03806.9,E,9.5,69.7,010416,,*1F
$GPRMC,000056,A,5537.0149,N,03806.9003,E,2.9,12.7,010416,,*2C
$GPRMC,000057,A,5537.0157,N,03806.9015,E,3.7,38.5,010416,,*20
$GPRMC,000058,A,5537.0165,N,03806.9039,E,5.9,58.4,010416,,*2F
$GPRMC,000059,A,5537.0171,N,03806.8992,E,9.9,282.6,010416,,*19
$GPRMC,000100,A,5537.0178,N,03806.8973,E,4.6,302.7,010416,,*18
$GPRMC,000101,A,5537.0185,N,03806.8978,E,3,17.4,010416,,*3B
$GPRMC,000102,A,5537.0195,N,03806.9042,E,13.7,74.5,010416,,*14
$GPRMC,000103,A,5537.0203,N,03806.9044,E,2.9,12,010416,,*3A
$GPRMC,000104,A,5537.0208,N,03806.8972,E,15.2,276.5,010416,,*2D
$GPRMC,000105,A,5537.0215,N,03806.8975,E,2.9,14.8,010416,,*21
$GPRMC,000106,A,5537.0225,N,03806.9018,E,9.4,68.9,010416,,*2E
$GPRMC,000107,A,5537.023,N,03806.8961,E,11.9,279.2,010416,,*10
$GPRMC,000108,A,5537.0239,N,03806.8989,E,6.6,61.3,010416,,*23
$GPRMC,000109,A,5537.0245,N,03806.896,E,6.3,291.4,010416,,*21
$GPRMC,000110,A,5537.0254,N,03806.8991,E,7.2,63.1,010416,,*2D
$GPRMC,000111,A,5537.0261,N,03806.8993,E,2.8,4.8,010416,,*1F
$GPRMC,000112,A,5537.0267,N,03806.8942,E,10.6,280.5,010416,,*28
$GPRMC,000113,A,5537.0275,N,03806.8954,E,3.9,40.7,010416,,*2C
$GPRMC,000114,A,5537.0285,N,03806.9002,E,10.5,70.2,010416,,*17
$GPRMC,000115,A,5537.0293,N,03806.9018,E,4.4,46.8,010416,,*21
$GPRMC,000116,A,5537.0296,N,03806.8932,E,17.8,274.1,010416,,*23
$GPRMC,000117,A,5537.0307,N,03806.9007,E,15.9,75.2,010416,,*16
$GPRMC,000118,A,5537.0312,N,03806.895,E,11.9,278.5,010416,,*1B
$GPRMC,000119,A,5537.0321,N,03806.8972,E,5.6,55.6,010416,,*2E
$GPRMC,000120,A,5537.0331,N,03806.9024,E,11.4,71,010416,,*07
$GPRMC,000121,A,5537.0337,N,03806.8995,E,6.5,290.1,010416,,*17
$GPRMC,000122,A,5537.0344,N,03806.8982,E,3.7,313.3,010416,,*19
$GPRMC,000123,A,5537.035,N,03806.8951,E,6.9,288.4,010416,,*2C
$GPRMC,000124,A,5537.0361,N,03806.9024,E,15.8,74.7,010416,,*12
$GPRMC,000125,A,5537.0364,N,03806.8937,E,17.9,273.5,010416,,*28
$GPRMC,000126,A,5537.0373,N,03806.8957,E,5.1,51.9,010416,,*2E
$GPRMC,000127,A,5537.0384,N,03806.9025,E,14.8,73.8,010416,,*12
$GPRMC,000128,A,5537.0392,N,03806.9024,E,2.8,352.4,010416,,*10
$GPRMC,000129,A,5537.0397,N,03806.8984,E,8.3,283.7,010416,,*19
$GPRMC,000130,A,5537.0408,N,03806.904,E,12.1,71.2,010416,,*23
$GPRMC,000131,A,5537.0413,N,03806.8998,E,8.8,282.5,010416,,*1E
$GPRMC,000132,A,5537.0423,N,03806.9039,E,9.2,66.7,010416,,*2C
$GPRMC,000133,A,5537.0424,N,03806.8926,E,23.4,270.9,010416,,*29
$GPRMC,000134,A,5537.0436,N,03806.9009,E,17.8,75.2,010416,,*1F
$GPRMC,000135,A,5537.0441,N,03806.8968,E,8.7,282.5,010416,,*1D
$GPRMC,000136,A,5537.045,N,03806.8991,E,5.8,55.8,010416,,*1F
$GPRMC,000137,A,5537.046,N,03806.902,E,6.9,60.4,010416,,*27
$GPRMC,000138,A,5537.0461,N,03806.8925,E,19.7,271.9,010416,,*2B
$GPRMC,000139,A,5537.0474,N,03806.9016,E,19.4,75.6,010416,,*1C
$GPRMC,000140,A,5537.0483,N,03806.9027,E,3.8,37.6,010416,,*29
$GPRMC,000141,A,5537.0488,N,03806.8984,E,9.2,281.1,010416,,*1A
$GPRMC,000142,A,5537.0495,N,03806.8984,E,2.8,0.2,010416,,*1C
$GPRMC,000143,A,5537.0505,N,03806.9013,E,6.9,59.9,010416,,*21
$GPRMC,000144,A,5537.0506,N,03806.8921,E,18.9,271.8,010416,,*2A
$GPRMC,000145,A,5537.0518,N,03806.8981,E,13,71.2,010416,,*0A
$GPRMC,000146,A,5537.0522,N,03806.8928,E,11,277.8,010416,,*3F
$GPRMC,000147,A,5537.0534,N,03806.9,E,15.5,73.1,010416,,*2B
$GPRMC,000148,A,5537.0538,N,03806.8945,E,11.6,276.9,010416,,*29
$GPRMC,000149,A,5537.0548,N,03806.8977,E,7.7,62.2,010416,,*24
$GPRMC,000150,A,5537.0559,N,03806.903,E,11.6,69.3,010416,,*2B
$GPRMC,000151,A,5537.0564,N,03806.8999,E,6.6,287.8,010416,,*10
$GPRMC,000152,A,5537.0566,N,03806.8911,E,18.3,271.6,010416,,*2C
$GPRMC,000153,A,5537.0578,N,03806.8981,E,15.1,72.4,010416,,*17
$GPRMC,000154,A,5537.0583,N,03806.8946,E,7.3,284.9,010416,,*18
$GPRMC,000155,A,5537.059,N,03806.8939,E,3,330.5,010416,,*38
$GPRMC,000156,A,5537.0601,N,03806.8983,E,9.9,66.5,010416,,*2C
$GPRMC,000157,A,5537.0604,N,03806.8922,E,12.8,275,010416,,*33
$GPRMC,000158,A,5537.0616,N,03806.898,E,12.9,70.3,010416,,*2C
$GPRMC,000159,A,5537.0624,N,03806.8988,E,3.3,27.3,010416,,*2C
$GPRMC,000200,A,5537.0628,N,03806.8946,E,8.8,280.5,010416,,*14
$GPRMC,000201,A,5537.0633,N,03806.8909,E,7.9,282.7,010416,,*1A
$GPRMC,000202,A,5537.0645,N,03806.8967,E,12.8,70,010416,,*03
$GPRMC,000203,A,5537.0652,N,03806.8951,E,4,305.8,010416,,*07
$GPRMC,000204,A,5537.0658,N,03806.8933,E,4.4,300.2,010416,,*1B
$GPRMC,000205,A,5537.0668,N,03806.8964,E,7.4,60.4,010416,,*2B
$GPRMC,000206,A,5537.0674,N,03806.8953,E,3.3,318.6,010416,,*1C
$GPRMC,000207,A,5537.0681,N,03806.8937,E,4.1,303.5,010416,,*19
$GPRMC,000208,A,5537.0686,N,03806.8912,E,5.5,291.9,010416,,*15
$GPRMC,000209,A,5537.0699,N,03806.8975,E,13.8,70.5,010416,,*10
$GPRMC,000210,A,5537.0704,N,03806.8942,E,7.2,284.3,010416,,*19
$GPRMC,000211,A,5537.0715,N,03806.8984,E,9.7,65.3,010416,,*24
$GPRMC,000212,A,5537.072,N,03806.8961,E,5.2,293.9,010416,,*22
$GPRMC,000213,A,5537.0726,N,03806.8933,E,6.2,287.8,010416,,*15
$GPRMC,000214,A,5537.0737,N,03806.8975,E,9.7,65.2,010416,,*2E
$GPRMC,000215,A,5537.0739,N,03806.8908,E,14,272.7,010416,,*3F
$GPRMC,000216,A,5537.075,N,03806.895,E,9.7,65.1,010416,,*29
$GPRMC,000217,A,5537.076,N,03806.8982,E,7.6,60.3,010416,,*1C
$GPRMC,000218,A,5537.0769,N,03806.9002,E,5.4,50.8,010416,,*22
$GPRMC,000219,A,5537.077,N,03806.8924,E,16.3,270.9,010416,,*13
$GPRMC,000220,A,5537.078,N,03806.8946,E,5.8,52.8,010416,,*18
$GPRMC,000221,A,5537.0793,N,03806.9009,E,13.9,69.8,010416,,*16
$GPRMC,000222,A,5537.0795,N,03806.8953,E,11.6,274.8,010416,,*27
$GPRMC,000223,A,5537.0803,N,03806.8954,E,2.8,5.4,010416,,*15
$GPRMC,000224,A,5537.0811,N,03806.8958,E,3,14.7,010416,,*39
$GPRMC,000225,A,5537.0819,N,03806.8958,E,2.8,358.1,010416,,*1A
$GPRMC,000226,A,5537.0825,N,03806.8946,E,3.4,314.1,010416,,*1C
$GPRMC,000227,A,5537.0836,N,03806.8982,E,8.5,62,010416,,*30
$GPRMC,000228,A,5537.0844,N,03806.8983,E,2.8,2.4,010416,,*10
$GPRMC,000229,A,5537.0853,N,03806.9005,E,5.8,52.2,010416,,*25
$GPRMC,000230,A,5537.0859,N,03806.8985,E,4.6,296.8,010416,,*18
$GPRMC,000231,A,5537.0862,N,03806.8937,E,9.9,276.5,010416,,*19
$GPRMC,000232,A,5537.0868,N,03806.8915,E,5,293.5,010416,,*00
$GPRMC,000233,A,5537.0883,N,03806.8995,E,17.5,71.4,010416,,*1B
$GPRMC,000234,A,5537.0881,N,03806.8896,E,20.5,268,010416,,*38
$GPRMC,000235,A,5537.0893,N,03806.8939,E,9.9,64.3,010416,,*2A
$GPRMC,000236,A,5537.0899,N,03806.893,E,3.1,321.3,010416,,*2A
$GPRMC,000237,A,5537.0902,N,03806.8886,E,9.1,277.6,010416,,*19
$GPRMC,000238,A,5537.0916,N,03806.8943,E,12.7,67.6,010416,,*14
$GPRMC,000239,A,5537.0927,N,03806.898,E,8.7,61.6,010416,,*15
$GPRMC,000240,A,5537.0932,N,03806.8953,E,5.9,287.5,010416,,*1B
$GPRMC,000241,A,5537.0934,N,03806.8901,E,10.6,274.7,010416,,*2E
$GPRMC,000242,A,5537.094,N,03806.888,E,4.7,294.8,010416,,*13
$GPRMC,000243,A,5537.0957,N,03806.8978,E,21.2,72.3,010416,,*11
$GPRMC,000244,A,5537.0955,N,03806.8886,E,19.1,267.9,010416,,*20
$GPRMC,000245,A,5537.0972,N,03806.8978,E,20.1,71.8,010416,,*1A
$GPRMC,000246,A,5537.0969,N,03806.8877,E,20.9,267,010416,,*36
$GPRMC,000247,A,5537.0979,N,03806.8897,E,5.4,49.5,010416,,*27
$GPRMC,000248,A,5537.099,N,03806.8932,E,8.5,60.6,010416,,*15
$GPRMC,000249,A,5537.1001,N,03806.8962,E,7.3,57.5,010416,,*2F
$GPRMC,000250,A,5537.1011,N,03806.8984,E,5.9,51.5,010416,,*20
$GPRMC,000251,A,5537.1009,N,03806.8896,E,18.2,267.9,010416,,*26
$GPRMC,000252,A,5537.1021,N,03806.8939,E,9.9,63.3,010416,,*2C
$GPRMC,000253,A,5537.1025,N,03806.8901,E,8.1,278.8,010416,,*18
$GPRMC,000254,A,5537.1035,N,03806.8921,E,5.4,49,010416,,*32
$GPRMC,000255,A,5537.1048,N,03806.8977,E,12.6,66.5,010416,,*18
$GPRMC,000256,A,5537.1055,N,03806.8963,E,3.5,309.8,010416,,*16
$GPRMC,000257,A,5537.1062,N,03806.8963,E,2.8,357.4,010416,,*18
$GPRMC,000258,A,5537.1062,N,03806.8896,E,13.8,270.2,010416,,*2E
$GPRMC,000259,A,5537.1072,N,03806.8914,E,5.1,46.2,010416,,*2C
$GPRMC,000300,A,5537.1079,N,03806.8907,E,2.9,328.7,010416,,*19
$GPRMC,000301,A,5537.1091,N,03806.8945,E,9.1,61.2,010416,,*20
$GPRMC,000302,A,5537.1099,N,03806.8953,E,3.5,28,010416,,*33
$GPRMC,000303,A,5537.1101,N,03806.8904,E,10.3,273.9,010416,,*2F
$GPRMC,000304,A,5537.1114,N,03806.8952,E,11.1,64.2,010416,,*13
$GPRMC,000305,A,5537.1119,N,03806.8925,E,5.9,286.1,010416,,*1F
$GPRMC,000306,A,5537.112,N,03806.887,E,11.3,272.2,010416,,*20
$GPRMC,000307,A,5537.1139,N,03806.8972,E,22.2,71.2,010416,,*1A
$GPRMC,000308,A,5537.1136,N,03806.8883,E,18.3,266.7,010416,,*2C
$GPRMC,000309,A,5537.1141,N,03806.8858,E,5.5,287.5,010416,,*1C
$GPRMC,000310,A,5537.116,N,03806.8953,E,20.8,70.6,010416,,*2E
$GPRMC,000311,A,5537.1157,N,03806.887,E,17.2,267.1,010416,,*16
$GPRMC,000312,A,5537.1177,N,03806.8969,E,21.7,70.7,010416,,*1C
$GPRMC,000313,A,5537.118,N,03806.893,E,8,277.9,010416,,*00
$GPRMC,000314,A,5537.1182,N,03806.8881,E,10.3,273.1,010416,,*26
$GPRMC,000315,A,5537.1193,N,03806.8913,E,8,58,010416,,*2D
$GPRMC,000316,A,5537.1205,N,03806.895,E,8.9,59.8,010416,,*15
$GPRMC,000317,A,5537.1212,N,03806.8942,E,2.9,325.8,010416,,*13
$GPRMC,000318,A,5537.121,N,03806.8863,E,16.5,267,010416,,*04
$GPRMC,000319,A,5537.1227,N,03806.8941,E,17.3,68.5,010416,,*11
$GPRMC,000320,A,5537.1228,N,03806.8887,E,11.1,271.6,010416,,*22
$GPRMC,000321,A,5537.1234,N,03806.8877,E,3.1,316.9,010416,,*1D
$GPRMC,000322,A,5537.1252,N,03806.896,E,18.4,68.8,010416,,*2D
$GPRMC,000323,A,5537.1258,N,03806.8949,E,3.2,315.4,010416,,*14
$GPRMC,000324,A,5537.1256,N,03806.8867,E,17,266.4,010416,,*3C
$GPRMC,000325,A,5537.1273,N,03806.8943,E,16.9,67.9,010416,,*15
$GPRMC,000326,A,5537.1278,N,03806.892,E,4.9,290.8,010416,,*20
$GPRMC,000327,A,5537.1289,N,03806.8948,E,7,54.3,010416,,*34
$GPRMC,000328,A,5537.1283,N,03806.8842,E,22.1,264,010416,,*3E
$GPRMC,000329,A,5537.1293,N,03806.8865,E,6.3,51.5,010416,,*20
$GPRMC,000330,A,5537.1308,N,03806.892,E,12.5,64.3,010416,,*28
$GPRMC,000331,A,5537.1306,N,03806.885,E,14.5,267.5,010416,,*10
$GPRMC,000332,A,5537.1325,N,03806.8933,E,18.5,68.3,010416,,*11
$GPRMC,000333,A,5537.1324,N,03806.8871,E,12.8,268.9,010416,,*29
$GPRMC,000334,A,5537.1335,N,03806.8895,E,6.4,51.8,010416,,*24
$GPRMC,000335,A,5537.1343,N,03806.8899,E,3.1,15,010416,,*3E
$GPRMC,000336,A,5537.1342,N,03806.8836,E,13.1,268.4,010416,,*2A
$GPRMC,000337,A,5537.1363,N,03806.8927,E,20.3,68.7,010416,,*1A
$GPRMC,000338,A,5537.1366,N,03806.8897,E,6.4,281.6,010416,,*1D
$GPRMC,000339,A,5537.1369,N,03806.886,E,7.7,277,010416,,*38
$GPRMC,000340,A,5537.1387,N,03806.894,E,17.7,67.4,010416,,*2D
$GPRMC,000341,A,5537.1394,N,03806.8933,E,2.8,330.7,010416,,*13
$GPRMC,000342,A,5537.1392,N,03806.8864,E,14.3,267,010416,,*33
$GPRMC,000343,A,5537.1396,N,03806.8837,E,5.8,284,010416,,*06
$GPRMC,000344,A,5537.1417,N,03806.8932,E,21.1,68.6,010416,,*1C
$GPRMC,000345,A,5537.1421,N,03806.8907,E,5.3,286.5,010416,,*1B
$GPRMC,000346,A,5537.1431,N,03806.8927,E,5.6,46.8,010416,,*2D
$GPRMC,000347,A,5537.143,N,03806.8866,E,12.7,268.1,010416,,*19
$GPRMC,000348,A,5537.144,N,03806.8885,E,5.5,46.3,010416,,*14
$GPRMC,000349,A,5537.145,N,03806.89,E,4.8,41.8,010416,,*18
$GPRMC,000350,A,5537.1457,N,03806.8896,E,2.7,340.7,010416,,*1D
$GPRMC,000351,A,5537.146,N,03806.8864,E,6.8,278.9,010416,,*2A
$GPRMC,000352,A,5537.1463,N,03806.883,E,7,278.1,010416,,*34
$GPRMC,000353,A,5537.1477,N,03806.8871,E,9.8,59.5,010416,,*28
$GPRMC,000354,A,5537.1483,N,03806.8861,E,3.1,317.1,010416,,*1B
$GPRMC,000355,A,5537.1498,N,03806.8912,E,12,62.3,010416,,*09
$GPRMC,000356,A,5537.1495,N,03806.8843,E,14.4,266,010416,,*35
$GPRMC,000357,A,5537.1502,N,03806.8838,E,2.7,336.7,010416,,*1E
$GPRMC,000358,A,5537.1511,N,03806.8847,E,3.8,30.2,010416,,*25
$GPRMC,000359,A,5537.1519,N,03806.8852,E,3.3,19.3,010416,,*29
$GPRMC,000400,A,5537.1528,N,03806.886,E,3.6,26.8,010416,,*13
$GPRMC,000401,A,5537.1533,N,03806.8843,E,3.9,298.1,010416,,*18
$GPRMC,000402,A,5537.1544,N,03806.8866,E,6.1,48.8,010416,,*27
$GPRMC,000403,A,5537.1546,N,03806.8825,E,8.3,273.6,010416,,*1B
$GPRMC,000404,A,5537.1552,N,03806.8819,E,2.8,331.1,010416,,*17
$GPRMC,000405,A,5537.1557,N,03806.8801,E,4.1,295.7,010416,,*1C
$GPRMC,000406,A,5537.1572,N,03806.8846,E,10.8,60.2,010416,,*1A
$GPRMC,000407,A,5537.1572,N,03806.8798,E,10,270.1,010416,,*31
$GPRMC,000408,A,5537.1583,N,03806.8819,E,5.9,47.3,010416,,*21
$GPRMC,000409,A,5537.1592,N,03806.8826,E,3.6,26.6,010416,,*27
$GPRMC,000410,A,5537.16,N,03806.8834,E,3.5,25.1,010416,,*23
$GPRMC,000411,A,5537.1605,N,03806.8816,E,4.1,295.5,010416,,*19
$GPRMC,000412,A,5537.1615,N,03806.8826,E,4,32.4,010416,,*39
$GPRMC,000413,A,5537.1621,N,03806.8822,E,2.7,341.4,010416,,*13
$GPRMC,000414,A,5537.1629,N,03806.8823,E,2.9,4,010416,,*0B
$GPRMC,000415,A,5537.1642,N,03806.8855,E,8,54.5,010416,,*35
$GPRMC,000416,A,5537.1643,N,03806.8811,E,9,271.4,010416,,*02
$GPRMC,000417,A,5537.1659,N,03806.8866,E,12.9,62,010416,,*0F
$GPRMC,000418,A,5537.1665,N,03806.8853,E,3.4,305.5,010416,,*1D
$GPRMC,000419,A,5537.1669,N,03806.8832,E,4.6,289.9,010416,,*1B
$GPRMC,000420,A,5537.1676,N,03806.8832,E,2.8,358.5,010416,,*16
$GPRMC,000421,A,5537.1682,N,03806.8817,E,3.5,303.5,010416,,*19
$GPRMC,000422,A,5537.1694,N,03806.8847,E,7.6,52.9,010416,,*24
$GPRMC,000423,A,5537.1699,N,03806.8828,E,4.3,292.6,010416,,*16
$GPRMC,000424,A,5537.1717,N,03806.8892,E,14.8,63.1,010416,,*16
$GPRMC,000425,A,5537.171,N,03806.8805,E,18.2,262,010416,,*04
$GPRMC,000426,A,5537.1721,N,03806.8826,E,5.9,46.6,010416,,*2F
$GPRMC,000427,A,5537.1721,N,03806.8781,E,9.1,270.4,010416,,*1D
$GPRMC,000428,A,5537.1732,N,03806.8801,E,5.8,45.8,010416,,*2A
$GPRMC,000429,A,5537.1736,N,03806.8778,E,5.1,285.2,010416,,*13
$GPRMC,000430,A,5537.1758,N,03806.8859,E,18.6,64.9,010416,,*12
$GPRMC,000431,A,5537.175,N,03806.8772,E,18.1,261.6,010416,,*12
$GPRMC,000432,A,5537.1764,N,03806.8807,E,8.7,55.1,010416,,*2E
$GPRMC,000433,A,5537.1768,N,03806.8788,E,4.2,292.8,010416,,*12
$GPRMC,000434,A,5537.1776,N,03806.8789,E,2.8,2.2,010416,,*16
$GPRMC,000435,A,5537.1786,N,03806.8799,E,4.1,32.5,010416,,*22
$GPRMC,000436,A,5537.1803,N,03806.8853,E,12.8,60.7,010416,,*11
$GPRMC,000437,A,5537.1795,N,03806.8766,E,18.3,261.2,010416,,*2E
$GPRMC,000438,A,5537.182,N,03806.8867,E,22.8,66,010416,,*35
$GPRMC,000439,A,5537.1818,N,03806.8811,E,11.5,266.1,010416,,*2E
$GPRMC,000440,A,5537.1822,N,03806.8791,E,4.5,289.4,010416,,*1E
$GPRMC,000441,A,5537.1823,N,03806.8755,E,7.5,273.3,010416,,*17
$GPRMC,000442,A,5537.185,N,03806.8859,E,23.7,66,010416,,*3C
$GPRMC,000443,A,5537.1856,N,03806.8851,E,2.9,322.1,010416,,*12
$GPRMC,000444,A,5537.1855,N,03806.8802,E,10.2,267.6,010416,,*2F
$GPRMC,000445,A,5537.187,N,03806.8841,E,9.7,56.3,010416,,*16
$GPRMC,000446,A,5537.1863,N,03806.8764,E,16,261.8,010416,,*35
$GPRMC,000447,A,5537.187,N,03806.876,E,2.7,340.8,010416,,*1C
$GPRMC,000448,A,5537.1887,N,03806.8808,E,11.7,58.9,010416,,*13
$GPRMC,000449,A,5537.1892,N,03806.8795,E,3.4,303.8,010416,,*11
$GPRMC,000450,A,5537.1903,N,03806.8815,E,5.9,45.1,010416,,*24
$GPRMC,000451,A,5537.1917,N,03806.885,E,9,54.6,010416,,*0D
$GPRMC,000452,A,5537.1907,N,03806.8751,E,20.8,259.2,010416,,*27
$GPRMC,000453,A,5537.1921,N,03806.8789,E,9.4,55.4,010416,,*28
$GPRMC,000454,A,5537.194,N,03806.8848,E,14.1,60.8,010416,,*29
$GPRMC,000455,A,5537.1927,N,03806.8739,E,23,258.4,010416,,*3E
$GPRMC,000456,A,5537.1954,N,03806.8843,E,23.6,65.1,010416,,*1A
$GPRMC,000457,A,5537.1962,N,03806.8844,E,2.9,5.6,010416,,*14
$GPRMC,000458,A,5537.1969,N,03806.8837,E,2.7,329.9,010416,,*18
$GPRMC,000459,A,5537.1974,N,03806.8825,E,3.2,308.1,010416,,*19
$GPRMC,000500,A,5537.1964,N,03806.8731,E,19.8,259.1,010416,,*2B
$GPRMC,000501,A,5537.1971,N,03806.8727,E,2.6,341.1,010416,,*15
$GPRMC,000502,A,5537.199,N,03806.8785,E,13.9,60.2,010416,,*2D
$GPRMC,000503,A,5537.1995,N,03806.8772,E,3.3,304.6,010416,,*1F
$GPRMC,000504,A,5537.2012,N,03806.8822,E,12,58.4,010416,,*02
$GPRMC,000505,A,5537.2012,N,03806.878,E,8.6,269.2,010416,,*21
$GPRMC,000506,A,5537.2029,N,03806.8827,E,11.5,57.6,010416,,*18
$GPRMC,000507,A,5537.2025,N,03806.8771,E,11.8,264,010416,,*3E
$GPRMC,000508,A,5537.2036,N,03806.8788,E,5.3,40.8,010416,,*29
$GPRMC,000509,A,5537.2048,N,03806.8807,E,5.8,43.5,010416,,*2C
$GPRMC,000510,A,5537.2056,N,03806.8807,E,2.9,2.7,010416,,*1A
$GPRMC,000511,A,5537.2057,N,03806.8778,E,6.2,276.1,010416,,*15
$GPRMC,000512,A,5537.2061,N,03806.8759,E,4,291.7,010416,,*01
$GPRMC,000513,A,5537.2076,N,03806.8795,E,9.1,53.6,010416,,*29
$GPRMC,000514,A,5537.2078,N,03806.8764,E,6.3,275.5,010416,,*16
$GPRMC,000515,A,5537.2089,N,03806.8782,E,5.5,41.6,010416,,*22
$GPRMC,000516,A,5537.2105,N,03806.8823,E,10.2,55.3,010416,,*13
$GPRMC,000517,A,5537.2092,N,03806.8722,E,21.2,257.6,010416,,*24
$GPRMC,000518,A,5537.2109,N,03806.8765,E,10.7,56,010416,,*07
$GPRMC,000519,A,5537.2109,N,03806.8726,E,8.1,269.2,010416,,*1C
$GPRMC,000520,A,5537.2124,N,03806.8765,E,9.9,54.7,010416,,*2E
$GPRMC,000521,A,5537.2128,N,03806.8749,E,3.8,294.6,010416,,*19
$GPRMC,000522,A,5537.2126,N,03806.8699,E,10.3,265,010416,,*37
$GPRMC,000523,A,5537.2147,N,03806.8763,E,15.2,60,010416,,*06
$GPRMC,000524,A,5537.2158,N,03806.8777,E,5,37.8,010416,,*33
$GPRMC,000525,A,5537.217,N,03806.8801,E,6.8,46.9,010416,,*14
$GPRMC,000526,A,5537.2158,N,03806.8705,E,20.5,257.3,010416,,*27
$GPRMC,000527,A,5537.2169,N,03806.8722,E,5.5,41.3,010416,,*23
$GPRMC,000528,A,5537.217,N,03806.8689,E,7,271.9,010416,,*36
$GPRMC,000529,A,5537.2191,N,03806.8754,E,15.5,59.9,010416,,*19
$GPRMC,000530,A,5537.2194,N,03806.873,E,4.9,282.4,010416,,*23
$GPRMC,000531,A,5537.2209,N,03806.8764,E,8.7,51.9,010416,,*27
$GPRMC,000532,A,5537.2223,N,03806.8795,E,8.4,51,010416,,*36
$GPRMC,000533,A,5537.2227,N,03806.878,E,3.6,297,010416,,*36
$GPRMC,000534,A,5537.2222,N,03806.8718,E,12.9,261.2,010416,,*2F
$GPRMC,000535,A,5537.2243,N,03806.8779,E,14.8,59.1,010416,,*13
$GPRMC,000536,A,5537.2231,N,03806.8688,E,19.4,257.1,010416,,*27
$GPRMC,000537,A,5537.2249,N,03806.8735,E,11.7,56.2,010416,,*15
$GPRMC,000538,A,5537.2256,N,03806.8734,E,2.7,354.8,010416,,*1C
$GPRMC,000539,A,5537.2274,N,03806.8779,E,11.3,55.6,010416,,*1E
$GPRMC,000540,A,5537.2282,N,03806.8783,E,3.3,14.5,010416,,*29
$GPRMC,000541,A,5537.2281,N,03806.874,E,8.9,266.2,010416,,*25
$GPRMC,000542,A,5537.2297,N,03806.878,E,10.3,54.1,010416,,*2E
$GPRMC,000543,A,5537.2299,N,03806.8752,E,5.9,275.6,010416,,*16
$GPRMC,000544,A,5537.2301,N,03806.8726,E,5.4,277.8,010416,,*13
$GPRMC,000545,A,5537.2313,N,03806.8746,E,6,42.8,010416,,*3A
$GPRMC,000546,A,5537.2302,N,03806.8662,E,17.8,257.2,010416,,*24
$GPRMC,000547,A,5537.2319,N,03806.8704,E,10.8,54.6,010416,,*1C
$GPRMC,000548,A,5537.2319,N,03806.8667,E,7.7,268.5,010416,,*10
$GPRMC,000549,A,5537.233,N,03806.8685,E,5.6,40.4,010416,,*1C
$GPRMC,000550,A,5537.234,N,03806.8695,E,4.3,30.3,010416,,*16
$GPRMC,000551,A,5537.2343,N,03806.8671,E,5,280.1,010416,,*09
$GPRMC,000552,A,5537.237,N,03806.8757,E,20.3,60.9,010416,,*21
$GPRMC,000553,A,5537.2373,N,03806.8736,E,4.4,284.8,010416,,*1C
$GPRMC,000554,A,5537.2375,N,03806.8712,E,5.2,278.9,010416,,*1E
$GPRMC,000555,A,5537.2378,N,03806.8689,E,4.9,280.7,010416,,*12
$GPRMC,000556,A,5537.2398,N,03806.8745,E,13.9,57.2,010416,,*15
$GPRMC,000557,A,5537.2404,N,03806.8737,E,2.7,321.8,010416,,*15
$GPRMC,000558,A,5537.2408,N,03806.8719,E,4,288.9,010416,,*06
$GPRMC,000559,A,5537.2399,N,03806.8647,E,15.1,257.9,010416,,*2F
$GPRMC,000600,A,5537.2411,N,03806.8666,E,5.8,41.2,010416,,*22
$GPRMC,000601,A,5537.2431,N,03806.8721,E,13.7,56.8,010416,,*17
$GPRMC,000602,A,5537.2425,N,03806.8659,E,13.1,259.3,010416,,*2F
$GPRMC,000603,A,5537.2445,N,03806.8711,E,12.9,56,010416,,*0C
$GPRMC,000604,A,5537.2459,N,03806.8738,E,7.8,47.9,010416,,*2F
$GPRMC,000605,A,5537.2454,N,03806.8686,E,10.9,261.5,010416,,*2A
$GPRMC,000606,A,5537.2455,N,03806.8655,E,6.5,271.4,010416,,*1D
$GPRMC,000607,A,5537.2474,N,03806.8704,E,12.2,55.1,010416,,*19
$GPRMC,000608,A,5537.247,N,03806.8655,E,10.1,262.5,010416,,*14
$GPRMC,000609,A,5537.2474,N,03806.8637,E,4,288.1,010416,,*0F
$GPRMC,000610,A,5537.2496,N,03806.8698,E,14.9,57.2,010416,,*1B
$GPRMC,000611,A,5537.2497,N,03806.867,E,5.8,274.1,010416,,*2C
$GPRMC,000612,A,5537.2513,N,03806.8703,E,9,50.3,010416,,*3B
$GPRMC,000613,A,5537.2503,N,03806.863,E,15.7,256.7,010416,,*1E
$GPRMC,000614,A,5537.2525,N,03806.8689,E,14.7,56.8,010416,,*13
$GPRMC,000615,A,5537.2525,N,03806.8655,E,6.9,269.2,010416,,*1A
$GPRMC,000616,A,5537.2541,N,03806.869,E,9.2,50.5,010416,,*19
$GPRMC,000617,A,5537.2554,N,03806.8713,E,6.9,44.6,010416,,*24
$GPRMC,000618,A,5537.2541,N,03806.863,E,17.9,255.2,010416,,*19
$GPRMC,000619,A,5537.255,N,03806.8634,E,3.4,17.3,010416,,*11
$GPRMC,000620,A,5537.2559,N,03806.8639,E,3.3,14.8,010416,,*20
$GPRMC,000621,A,5537.2558,N,03806.8602,E,7.5,266.9,010416,,*1C
$GPRMC,000622,A,5537.2585,N,03806.8682,E,19.4,58.9,010416,,*16
$GPRMC,000623,A,5537.2576,N,03806.8614,E,14.6,256.9,010416,,*27
$GPRMC,000624,A,5537.2586,N,03806.8622,E,3.9,24.5,010416,,*28
$GPRMC,000625,A,5537.2589,N,03806.8603,E,4.1,286,010416,,*0B
$GPRMC,000626,A,5537.2614,N,03806.8673,E,17.3,57.7,010416,,*1F
$GPRMC,000627,A,5537.2621,N,03806.8669,E,2.6,339.9,010416,,*17
$GPRMC,000628,A,5537.2627,N,03806.8664,E,2.6,335.5,010416,,*13
$GPRMC,000629,A,5537.2621,N,03806.8606,E,12.1,258.6,010416,,*2F
$GPRMC,000630,A,5537.2634,N,03806.8629,E,6.8,43.6,010416,,*2A
$GPRMC,000631,A,5537.2635,N,03806.86,E,6,271.9,010416,,*0B
$GPRMC,000632,A,5537.2656,N,03806.8652,E,13.2,54.7,010416,,*19
$GPRMC,000633,A,5537.2663,N,03806.8652,E,2.8,358.9,010416,,*15
$GPRMC,000634,A,5537.2665,N,03806.8626,E,5.5,274.4,010416,,*1F
$GPRMC,000635,A,5537.2662,N,03806.8587,E,8.1,264.5,010416,,*18
$GPRMC,000636,A,5537.2674,N,03806.86,E,4.9,34.2,010416,,*24
$GPRMC,000637,A,5537.2702,N,03806.868,E,19.6,58.1,010416,,*27
$GPRMC,000638,A,5537.2695,N,03806.8622,E,12.4,257.8,010416,,*22
$GPRMC,000639,A,5537.2715,N,03806.8671,E,12.6,53.7,010416,,*17
$GPRMC,000640,A,5537.2709,N,03806.8616,E,11.5,258.7,010416,,*2C
$GPRMC,000641,A,5537.2727,N,03806.8657,E,10.7,51.5,010416,,*1E
$GPRMC,000642,A,5537.2731,N,03806.864,E,3.7,290.9,010416,,*2D
$GPRMC,000643,A,5537.2718,N,03806.8563,E,16.6,254.4,010416,,*25
$GPRMC,000644,A,5537.2732,N,03806.8585,E,6.7,42.6,010416,,*25
$GPRMC,000645,A,5537.2761,N,03806.8666,E,19.7,57.8,010416,,*18
$GPRMC,000646,A,5537.2746,N,03806.8579,E,18.7,253.2,010416,,*2E
$GPRMC,000647,A,5537.2765,N,03806.8623,E,11.6,52.3,010416,,*18
$GPRMC,000648,A,5537.2779,N,03806.8646,E,7,43.3,010416,,*36
$GPRMC,000649,A,5537.2785,N,03806.8638,E,2.7,318.7,010416,,*18
$GPRMC,000650,A,5537.2781,N,03806.8595,E,8.9,262,010416,,*01
$GPRMC,000651,A,5537.2798,N,03806.8628,E,9.1,48.5,010416,,*25
$GPRMC,000652,A,5537.2805,N,03806.8624,E,2.6,342.4,010416,,*15
$GPRMC,000653,A,5537.2805,N,03806.8595,E,6,270.2,010416,,*07
$GPRMC,000654,A,5537.2826,N,03806.8648,E,13.5,53.7,010416,,*1B
$GPRMC,000655,A,5537.2809,N,03806.8553,E,20.5,252,010416,,*34
$GPRMC,000656,A,5537.2814,N,03806.8543,E,2.8,309.6,010416,,*10
$GPRMC,000657,A,5537.284,N,03806.861,E,16.9,55.9,010416,,*14
$GPRMC,000658,A,5537.2847,N,03806.8606,E,2.6,340.3,010416,,*1C
$GPRMC,000659,A,5537.284,N,03806.8552,E,11.6,257.4,010416,,*1A
$GPRMC,000700,A,5537.286,N,03806.8596,E,11.7,51.8,010416,,*24
$GPRMC,000701,A,5537.2854,N,03806.8547,E,10.5,258.7,010416,,*29
$GPRMC,000702,A,5537.2863,N,03806.8553,E,3.7,19.7,010416,,*2C
$GPRMC,000703,A,5537.2866,N,03806.8532,E,4.3,280.9,010416,,*10
$GPRMC,000704,A,5537.2872,N,03806.8526,E,2.6,329.9,010416,,*16
$GPRMC,000705,A,5537.2878,N,03806.8521,E,2.6,338.9,010416,,*1A
$GPRMC,000706,A,5537.2908,N,03806.86,E,19.6,56.6,010416,,*11
$GPRMC,000707,A,5537.2911,N,03806.8584,E,3.6,290,010416,,*0C
$GPRMC,000708,A,5537.292,N,03806.8587,E,3.2,10.6,010416,,*14
$GPRMC,000709,A,5537.2914,N,03806.8538,E,10.4,258.4,010416,,*2E
$GPRMC,000710,A,5537.2925,N,03806.8551,E,5,33.3,010416,,*3D
$GPRMC,000711,A,5537.2934,N,03806.8556,E,3.4,15.3,010416,,*23
$GPRMC,000712,A,5537.2949,N,03806.8578,E,7,42.3,010416,,*3A
$GPRMC,000713,A,5537.2954,N,03806.8569,E,2.7,313.2,010416,,*1D
$GPRMC,000714,A,5537.2961,N,03806.8568,E,2.8,358.4,010416,,*1B
$GPRMC,000715,A,5537.2951,N,03806.8502,E,14.3,254,010416,,*3E
$GPRMC,000716,A,5537.2963,N,03806.8518,E,5.6,36.5,010416,,*2F
$GPRMC,000717,A,5537.2989,N,03806.8583,E,16.5,54.6,010416,,*1E
$GPRMC,000718,A,5537.298,N,03806.8521,E,13.3,254.6,010416,,*11
$GPRMC,000719,A,5537.2992,N,03806.8539,E,6,38.3,010416,,*3E
$GPRMC,000720,A,5537.3014,N,03806.8587,E,12.5,51.5,010416,,*10
$GPRMC,000721,A,5537.3005,N,03806.8528,E,12.5,255.2,010416,,*25
$GPRMC,000722,A,5537.3025,N,03806.8571,E,11.5,50.3,010416,,*1D
$GPRMC,000723,A,5537.3027,N,03806.855,E,4.4,278.5,010416,,*26
$GPRMC,000724,A,5537.304,N,03806.8569,E,6.3,39.1,010416,,*1C
$GPRMC,000725,A,5537.3046,N,03806.8561,E,2.6,323.5,010416,,*1E
$GPRMC,000726,A,5537.3047,N,03806.8538,E,4.8,275,010416,,*01
$GPRMC,000727,A,5537.3069,N,03806.8587,E,12.8,51.4,010416,,*11
$GPRMC,000728,A,5537.3076,N,03806.8582,E,2.6,341,010416,,*02
$GPRMC,000729,A,5537.3063,N,03806.8511,E,15.6,252.3,010416,,*25
$GPRMC,000730,A,5537.3068,N,03806.8501,E,2.7,311.6,010416,,*13
$GPRMC,000731,A,5537.3097,N,03806.8573,E,18.4,54.8,010416,,*13
$GPRMC,000732,A,5537.3096,N,03806.8544,E,6.1,267.4,010416,,*11
$GPRMC,000733,A,5537.3083,N,03806.8473,E,15.3,252.3,010416,,*20
$GPRMC,000734,A,5537.3103,N,03806.8515,E,11.4,49.6,010416,,*11
$GPRMC,000735,A,5537.3105,N,03806.8493,E,4.6,276.6,010416,,*11
$GPRMC,000736,A,5537.3117,N,03806.8509,E,5.5,35,010416,,*3C
$GPRMC,000737,A,5537.3119,N,03806.8489,E,4.1,280.9,010416,,*14
$GPRMC,000738,A,5537.3137,N,03806.8521,E,9.2,46.4,010416,,*2F
$GPRMC,000739,A,5537.313,N,03806.8471,E,10.7,256.1,010416,,*16
$GPRMC,000740,A,5537.3145,N,03806.8496,E,7.6,42.8,010416,,*2A
$GPRMC,000741,A,5537.3157,N,03806.8511,E,5.3,33.6,010416,,*29
$GPRMC,000742,A,5537.3167,N,03806.8519,E,4.1,24,010416,,*3C
$GPRMC,000743,A,5537.3154,N,03806.8447,E,15.7,251.5,010416,,*2A
$GPRMC,000744,A,5537.3191,N,03806.8544,E,24.4,56.1,010416,,*16
$GPRMC,000745,A,5537.317,N,03806.8449,E,21.2,248.9,010416,,*12
$GPRMC,000746,A,5537.318,N,03806.8455,E,3.8,19.9,010416,,*1F
$GPRMC,000747,A,5537.3187,N,03806.8452,E,2.6,347.6,010416,,*16
$GPRMC,000748,A,5537.3218,N,03806.853,E,19.8,54.4,010416,,*2E
$GPRMC,000749,A,5537.321,N,03806.8478,E,11.1,255.1,010416,,*1D
$GPRMC,000750,A,5537.3223,N,03806.8495,E,5.8,35.9,010416,,*26
$GPRMC,000751,A,5537.3233,N,03806.8502,E,4,21.7,010416,,*35
$GPRMC,000752,A,5537.324,N,03806.8499,E,2.7,347.9,010416,,*23
$GPRMC,000753,A,5537.3237,N,03806.8463,E,7.5,261.4,010416,,*18
$GPRMC,000754,A,5537.3232,N,03806.8422,E,8.8,258.2,010416,,*11
$GPRMC,000755,A,5537.324,N,03806.842,E,2.7,351.3,010416,,*1B
$GPRMC,000756,A,5537.3263,N,03806.8471,E,13.7,50.8,010416,,*14
$GPRMC,000757,A,5537.3253,N,03806.8411,E,12.9,252.7,010416,,*20
$GPRMC,000758,A,5537.327,N,03806.8442,E,8.9,44.7,010416,,*16
$GPRMC,000759,A,5537.3279,N,03806.8447,E,3.6,16.6,010416,,*29
$GPRMC,000800,A,5537.3289,N,03806.8454,E,4,22.1,010416,,*38
$GPRMC,000801,A,5537.3303,N,03806.8471,E,5.9,35.9,010416,,*25
$GPRMC,000802,A,5537.3298,N,03806.8429,E,8.7,257.9,010416,,*1D
$GPRMC,000803,A,5537.3306,N,03806.8432,E,3.2,9.2,010416,,*1C
$GPRMC,000804,A,5537.3319,N,03806.8446,E,5.4,32.9,010416,,*25
$GPRMC,000805,A,5537.3321,N,03806.8428,E,3.8,282.7,010416,,*1A
$GPRMC,000806,A,5537.3336,N,03806.8451,E,7.3,40.6,010416,,*23
$GPRMC,000807,A,5537.3327,N,03806.8399,E,11.2,253.8,010416,,*29
$GPRMC,000808,A,5537.3358,N,03806.847,E,18.4,52.9,010416,,*23
$GPRMC,000809,A,5537.3355,N,03806.8436,E,7.2,261.2,010416,,*1C
$GPRMC,000810,A,5537.3355,N,03806.8411,E,5.1,270.1,010416,,*13
$GPRMC,000811,A,5537.336,N,03806.8403,E,2.5,323.6,010416,,*24
$GPRMC,000812,A,5537.3371,N,03806.8412,E,4.2,23.7,010416,,*24
$GPRMC,000813,A,5537.3374,N,03806.8398,E,3.1,294.9,010416,,*11
$GPRMC,000814,A,5537.3381,N,03806.8394,E,2.5,339.9,010416,,*13
$GPRMC,000815,A,5537.3395,N,03806.8413,E,6.6,38,010416,,*3D
$GPRMC,000816,A,5537.3399,N,03806.84,E,3.1,295.9,010416,,*10
$GPRMC,000817,A,5537.342,N,03806.844,E,11.1,47.2,010416,,*15
$GPRMC,000818,A,5537.3438,N,03806.8471,E,9.2,44.4,010416,,*2E
$GPRMC,000819,A,5537.3429,N,03806.842,E,11,253.4,010416,,*0A
$GPRMC,000820,A,5537.3417,N,03806.8358,E,13.6,250.8,010416,,*20
$GPRMC,000821,A,5537.3456,N,03806.8455,E,24.8,54.3,010416,,*19
$GPRMC,000822,A,5537.3443,N,03806.8391,E,14.2,250.3,010416,,*2E
$GPRMC,000823,A,5537.3442,N,03806.8361,E,6.1,264.1,010416,,*14
$GPRMC,000824,A,5537.3452,N,03806.8369,E,4.2,23.5,010416,,*2E
$GPRMC,000825,A,5537.3457,N,03806.8359,E,2.7,306.8,010416,,*13
$GPRMC,000826,A,5537.3491,N,03806.8439,E,20.9,52.9,010416,,*16
$GPRMC,000827,A,5537.349,N,03806.8412,E,5.7,266.1,010416,,*2B
$GPRMC,000828,A,5537.3488,N,03806.8383,E,5.9,264.7,010416,,*18
$GPRMC,000829,A,5537.3505,N,03806.8411,E,8.4,42.3,010416,,*23
$GPRMC,000830,A,5537.3495,N,03806.8355,E,12.1,251.6,010416,,*2F
$GPRMC,000831,A,5537.3526,N,03806.8424,E,18.2,51.6,010416,,*1D
$GPRMC,000832,A,5537.3502,N,03806.8329,E,21.6,246.2,010416,,*2C
$GPRMC,000833,A,5537.3527,N,03806.8381,E,14.1,49.3,010416,,*15
$GPRMC,000834,A,5537.3552,N,03806.8431,E,13.9,49,010416,,*0E
$GPRMC,000835,A,5537.3525,N,03806.8327,E,23.7,245.4,010416,,*26
$GPRMC,000836,A,5537.3562,N,03806.8412,E,22,52.8,010416,,*07
$GPRMC,000837,A,5537.3549,N,03806.8349,E,13.8,249.7,010416,,*25
$GPRMC,000838,A,5537.3547,N,03806.8322,E,5.7,265.1,010416,,*19
$GPRMC,000839,A,5537.3574,N,03806.8377,E,15,49.6,010416,,*0B
$GPRMC,000840,A,5537.3587,N,03806.8394,E,6.1,34.7,010416,,*22
$GPRMC,000841,A,5537.3568,N,03806.8312,E,18.5,246.8,010416,,*2F
$GPRMC,000842,A,5537.3596,N,03806.8371,E,16,50,010416,,*1E
$GPRMC,000843,A,5537.3595,N,03806.8345,E,5.5,265.9,010416,,*11
$GPRMC,000844,A,5537.3606,N,03806.8354,E,4.6,25.9,010416,,*2B
$GPRMC,000845,A,5537.3614,N,03806.8356,E,3.2,6.7,010416,,*17
$GPRMC,000846,A,5537.3604,N,03806.8302,E,11.9,250.8,010416,,*22
$GPRMC,000847,A,5537.3643,N,03806.8392,E,23.4,52.6,010416,,*1B
$GPRMC,000848,A,5537.3643,N,03806.837,E,4.4,273.4,010416,,*2E
$GPRMC,000849,A,5537.3625,N,03806.8294,E,17.1,247,010416,,*3E
$GPRMC,000850,A,5537.3634,N,03806.8297,E,3.3,9.9,010416,,*1D
$GPRMC,000851,A,5537.3656,N,03806.8337,E,11.4,45.9,010416,,*1F
$GPRMC,000852,A,5537.3674,N,03806.8366,E,9,42.4,010416,,*31
$GPRMC,000853,A,5537.3654,N,03806.8287,E,17.9,246.4,010416,,*22
$GPRMC,000854,A,5537.3685,N,03806.8353,E,18,50.4,010416,,*0C
$GPRMC,000855,A,5537.3672,N,03806.8293,E,13.4,249,010416,,*39
$GPRMC,000856,A,5537.368,N,03806.8292,E,2.8,356.2,010416,,*29
$GPRMC,000857,A,5537.3695,N,03806.8313,E,7,37.5,010416,,*34
$GPRMC,000858,A,5537.3702,N,03806.8311,E,2.7,350.6,010416,,*1B
$GPRMC,000859,A,5537.37,N,03806.8282,E,6,262.4,010416,,*0C
$GPRMC,000900,A,5537.3713,N,03806.8297,E,5.8,32.5,010416,,*24
$GPRMC,000901,A,5537.3709,N,03806.8263,E,7.2,258.1,010416,,*17
$GPRMC,000902,A,5537.3731,N,03806.8301,E,11.2,45.2,010416,,*10
$GPRMC,000903,A,5537.375,N,03806.8333,E,9.7,43.1,010416,,*1E
$GPRMC,000904,A,5537.3732,N,03806.8258,E,17,246.2,010416,,*33
$GPRMC,000905,A,5537.3759,N,03806.8313,E,15.2,48.4,010416,,*15
$GPRMC,000906,A,5537.3758,N,03806.8286,E,5.6,264.1,010416,,*16
$GPRMC,000907,A,5537.3758,N,03806.8265,E,4.2,273.3,010416,,*1B
$GPRMC,000908,A,5537.3765,N,03806.8261,E,2.5,335.8,010416,,*17
$GPRMC,000909,A,5537.3787,N,03806.83,E,11.5,45.1,010416,,*13
$GPRMC,000910,A,5537.3809,N,03806.834,E,11.8,45.4,010416,,*2E
$GPRMC,000911,A,5537.3806,N,03806.8308,E,6.7,259.1,010416,,*1F
$GPRMC,000912,A,5537.3796,N,03806.826,E,10.6,250.9,010416,,*12
$GPRMC,000913,A,5537.3801,N,03806.825,E,2.6,307.6,010416,,*2E
$GPRMC,000914,A,5537.3807,N,03806.8246,E,2.5,340.6,010416,,*18
$GPRMC,000915,A,5537.3834,N,03806.8298,E,14.6,47.6,010416,,*1A
$GPRMC,000916,A,5537.3837,N,03806.8285,E,2.9,294.7,010416,,*13
$GPRMC,000917,A,5537.3859,N,03806.8321,E,10.8,43.9,010416,,*11
$GPRMC,000918,A,5537.385,N,03806.8276,E,10,251.5,010416,,*0F
$GPRMC,000919,A,5537.3868,N,03806.8302,E,8.4,39.9,010416,,*24
$GPRMC,000920,A,5537.3846,N,03806.822,E,18.5,244.7,010416,,*15
$GPRMC,000921,A,5537.3879,N,03806.8289,E,18.7,49.4,010416,,*15
$GPRMC,000922,A,5537.3879,N,03806.8266,E,4.7,268.5,010416,,*1A
$GPRMC,000923,A,5537.3894,N,03806.8287,E,7.1,36.5,010416,,*2B
$GPRMC,000924,A,5537.3902,N,03806.8286,E,2.9,357,010416,,*01
$GPRMC,000925,A,5537.3883,N,03806.8212,E,17,245.1,010416,,*3B
$GPRMC,000926,A,5537.3891,N,03806.8211,E,2.9,358.9,010416,,*1E
$GPRMC,000927,A,5537.3904,N,03806.8226,E,5.8,31.5,010416,,*20
$GPRMC,000928,A,5537.3919,N,03806.8244,E,6.6,34.7,010416,,*2D
$GPRMC,000929,A,5537.3934,N,03806.8263,E,6.7,35.1,010416,,*20
$GPRMC,000930,A,5537.3941,N,03806.8261,E,2.7,352.7,010416,,*18
$GPRMC,000931,A,5537.3956,N,03806.8279,E,6.6,34.7,010416,,*20
$GPRMC,000932,A,5537.3955,N,03806.8255,E,5,266.2,010416,,*05
$GPRMC,000933,A,5537.3962,N,03806.8251,E,2.5,337.2,010416,,*1D
$GPRMC,000934,A,5537.3955,N,03806.8212,E,8.3,253.6,010416,,*12
$GPRMC,000935,A,5537.3958,N,03806.8199,E,3,292.2,010416,,*01
$GPRMC,000936,A,5537.3957,N,03806.8175,E,5,265.6,010416,,*05
$GPRMC,000937,A,5537.3967,N,03806.818,E,3.9,16.9,010416,,*15
$GPRMC,000938,A,5537.3982,N,03806.8197,E,6.2,33.1,010416,,*26
$GPRMC,000939,A,5537.3984,N,03806.8181,E,3.4,282.7,010416,,*1B
$GPRMC,000940,A,5537.4001,N,03806.8206,E,8.3,38.8,010416,,*2A
$GPRMC,000941,A,5537.4022,N,03806.8239,E,10.3,42.1,010416,,*1B
$GPRMC,000942,A,5537.4006,N,03806.8178,E,14,246,010416,,*28
$GPRMC,000943,A,5537.4012,N,03806.8172,E,2.4,328.6,010416,,*1A
$GPRMC,000944,A,5537.4015,N,03806.8157,E,3.1,288,010416,,*0A
$GPRMC,000945,A,5537.4047,N,03806.822,E,17.6,47.8,010416,,*2A
$GPRMC,000946,A,5537.4042,N,03806.8186,E,7.4,255.1,010416,,*18
$GPRMC,000947,A,5537.4053,N,03806.8193,E,4.2,20.4,010416,,*2D
$GPRMC,000948,A,5537.4071,N,03806.8218,E,8.3,38.5,010416,,*27
$GPRMC,000949,A,5537.4088,N,03806.8243,E,8.2,38.1,010416,,*2B
$GPRMC,000950,A,5537.406,N,03806.8149,E,21.9,241.9,010416,,*18
$GPRMC,000951,A,5537.4072,N,03806.816,E,5,26.2,010416,,*08
$GPRMC,000952,A,5537.4082,N,03806.8166,E,4,17.6,010416,,*35
$GPRMC,000953,A,5537.4104,N,03806.8201,E,10.7,42.2,010416,,*11
$GPRMC,000954,A,5537.4122,N,03806.8224,E,8,37.6,010416,,*33
$GPRMC,000955,A,5537.4108,N,03806.8168,E,12.8,246.3,010416,,*2D
$GPRMC,000956,A,5537.4102,N,03806.8133,E,7.4,254.4,010416,,*16
$GPRMC,000957,A,5537.4112,N,03806.8138,E,3.8,15.5,010416,,*23
$GPRMC,000958,A,5537.4127,N,03806.8156,E,6.7,34,010416,,*30
$GPRMC,000959,A,5537.4147,N,03806.8185,E,9.2,39.7,010416,,*27
$GPRMC,001000,A,5537.4161,N,03806.8199,E,5.8,30.3,010416,,*21
$GPRMC,001001,A,5537.413,N,03806.8103,E,22.8,241.1,010416,,*14
$GPRMC,001002,A,5537.4155,N,03806.8144,E,12.3,43.5,010416,,*1B
$GPRMC,001003,A,5537.4157,N,03806.8128,E,3.3,282.7,010416,,*1F
$GPRMC,001004,A,5537.4166,N,03806.8131,E,3.5,10.5,010416,,*2F
$GPRMC,001005,A,5537.4163,N,03806.8104,E,5.8,259.4,010416,,*18
$GPRMC,001006,A,5537.4194,N,03806.816,E,16.2,46.1,010416,,*20
$GPRMC,001007,A,5537.4194,N,03806.8141,E,4.1,271.5,010416,,*10
$GPRMC,001008,A,5537.4195,N,03806.8124,E,3.5,278.2,010416,,*10
$GPRMC,001009,A,5537.4185,N,03806.8077,E,10.5,247.9,010416,,*22
$GPRMC,001010,A,5537.4205,N,03806.8108,E,9.9,40.4,010416,,*24
$GPRMC,001011,A,5537.4234,N,03806.8159,E,14.9,45.1,010416,,*1F
$GPRMC,001012,A,5537.4249,N,03806.8174,E,6.2,31.5,010416,,*26
$GPRMC,001013,A,5537.4243,N,03806.8139,E,7.6,253.1,010416,,*13
$GPRMC,001014,A,5537.4233,N,03806.8095,E,9.9,248.4,010416,,*1A
$GPRMC,001015,A,5537.4263,N,03806.8151,E,16.2,45.7,010416,,*1E
$GPRMC,001016,A,5537.4234,N,03806.8059,E,21.9,240.6,010416,,*2F
$GPRMC,001017,A,5537.428,N,03806.8151,E,25.3,48.7,010416,,*2D
$GPRMC,001018,A,5537.4262,N,03806.8086,E,14.8,243.5,010416,,*27
$GPRMC,001019,A,5537.428,N,03806.8112,E,8.6,37.7,010416,,*16
$GPRMC,001020,A,5537.4287,N,03806.8109,E,2.6,347.8,010416,,*10
$GPRMC,001021,A,5537.4284,N,03806.8081,E,5.9,258.2,010416,,*1E
$GPRMC,001022,A,5537.4307,N,03806.8118,E,11.4,41.7,010416,,*11
$GPRMC,001023,A,5537.4298,N,03806.8077,E,9.1,249.2,010416,,*1C
$GPRMC,001024,A,5537.4307,N,03806.8079,E,3.3,7.7,010416,,*17
$GPRMC,001025,A,5537.4324,N,03806.8099,E,7.4,34.7,010416,,*2A
$GPRMC,001026,A,5537.4333,N,03806.81,E,3.2,5,010416,,*07
$GPRMC,001027,A,5537.4311,N,03806.8028,E,16.9,241.9,010416,,*27
$GPRMC,001028,A,5537.4343,N,03806.8085,E,16.5,45.3,010416,,*18
$GPRMC,001029,A,5537.4356,N,03806.8098,E,5.7,28.5,010416,,*2C
$GPRMC,001030,A,5537.4352,N,03806.8067,E,6.6,254.9,010416,,*17
$GPRMC,001031,A,5537.4359,N,03806.8066,E,2.8,353.8,010416,,*11
$GPRMC,001032,A,5537.4347,N,03806.8018,E,10.9,246.1,010416,,*2A
$GPRMC,001033,A,5537.4355,N,03806.8017,E,2.9,358.6,010416,,*1D
$GPRMC,001034,A,5537.4359,N,03806.8006,E,2.6,300.2,010416,,*10
$GPRMC,001035,A,5537.4381,N,03806.8041,E,11,40.7,010416,,*0F
$GPRMC,001036,A,5537.4403,N,03806.8073,E,10.4,39.9,010416,,*1B
$GPRMC,001037,A,5537.4385,N,03806.8011,E,14.5,242.7,010416,,*22
$GPRMC,001038,A,5537.4396,N,03806.8017,E,4,16.4,010416,,*33
$GPRMC,001039,A,5537.4411,N,03806.8035,E,6.9,32.8,010416,,*25
$GPRMC,001040,A,5537.4418,N,03806.8032,E,2.6,347.7,010416,,*10
$GPRMC,001041,A,5537.4433,N,03806.8047,E,6.1,29.8,010416,,*2D
$GPRMC,001042,A,5537.4439,N,03806.8043,E,2.5,340.6,010416,,*12
$GPRMC,001043,A,5537.4424,N,03806.7987,E,12.8,243.7,010416,,*2E
$GPRMC,001044,A,5537.4452,N,03806.8035,E,14.4,43.3,010416,,*1B
$GPRMC,001045,A,5537.4438,N,03806.7983,E,12,244.3,010416,,*34
$GPRMC,001046,A,5537.447,N,03806.8038,E,16.4,44.4,010416,,*26
$GPRMC,001047,A,5537.4448,N,03806.7967,E,16.9,240.8,010416,,*27
$GPRMC,001048,A,5537.4489,N,03806.8043,E,21.9,46.4,010416,,*19
$GPRMC,001049,A,5537.4493,N,03806.8034,E,2.5,309.7,010416,,*15
$GPRMC,001050,A,5537.4501,N,03806.8033,E,2.8,353.7,010416,,*12
$GPRMC,001051,A,5537.4521,N,03806.806,E,9.2,37.4,010416,,*14
$GPRMC,001052,A,5537.4488,N,03806.7965,E,22.9,238.5,010416,,*28
$GPRMC,001053,A,5537.4524,N,03806.8029,E,18.7,45.1,010416,,*1B
$GPRMC,001054,A,5537.45,N,03806.7955,E,17.7,240.1,010416,,*2F
$GPRMC,001055,A,5537.4541,N,03806.8031,E,21.8,46.1,010416,,*11
$GPRMC,001056,A,5537.4511,N,03806.7943,E,21.3,238.7,010416,,*22
$GPRMC,001057,A,5537.4548,N,03806.8008,E,19.1,45.1,010416,,*11
$GPRMC,001058,A,5537.4559,N,03806.8015,E,4.4,19.5,010416,,*26
$GPRMC,001059,A,5537.4541,N,03806.7955,E,14.3,241.8,010416,,*28
$GPRMC,001100,A,5537.4584,N,03806.8035,E,23.1,46.2,010416,,*15
$GPRMC,001101,A,5537.4587,N,03806.8023,E,2.8,291.3,010416,,*13
$GPRMC,001102,A,5537.4568,N,03806.796,E,14.7,241.3,010416,,*15
$GPRMC,001103,A,5537.4581,N,03806.7971,E,5.2,24.7,010416,,*23
$GPRMC,001104,A,5537.4602,N,03806.8,E,9.9,38,010416,,*0F
$GPRMC,001105,A,5537.4575,N,03806.7921,E,19.2,239,010416,,*31
$GPRMC,001106,A,5537.4607,N,03806.7974,E,16.1,43.4,010416,,*1D
$GPRMC,001107,A,5537.4597,N,03806.7933,E,9.4,246.4,010416,,*19
$GPRMC,001108,A,5537.4612,N,03806.7948,E,6.4,30.1,010416,,*2D
$GPRMC,001109,A,5537.462,N,03806.7948,E,2.9,357.7,010416,,*20
$GPRMC,001110,A,5537.4608,N,03806.7901,E,10.6,244.6,010416,,*21
$GPRMC,001111,A,5537.4644,N,03806.7964,E,18.6,44.3,010416,,*14
$GPRMC,001112,A,5537.464,N,03806.7936,E,6,254.8,010416,,*3B
$GPRMC,001113,A,5537.4668,N,03806.798,E,13.6,41.5,010416,,*2A
$GPRMC,001114,A,5537.4633,N,03806.7885,E,23.3,237.3,010416,,*24
$GPRMC,001115,A,5537.4665,N,03806.7938,E,16,42.9,010416,,*00
$GPRMC,001116,A,5537.467,N,03806.7931,E,2.4,324.1,010416,,*2A
$GPRMC,001117,A,5537.4701,N,03806.7981,E,15.4,42.4,010416,,*17
$GPRMC,001118,A,5537.4709,N,03806.798,E,2.9,354.8,010416,,*22
$GPRMC,001119,A,5537.4671,N,03806.7878,E,25.2,236.6,010416,,*2E
$GPRMC,001120,A,5537.472,N,03806.7966,E,25.4,45.8,010416,,*21
$GPRMC,001121,A,5537.4712,N,03806.7931,E,7.9,248.5,010416,,*1C
$GPRMC,001122,A,5537.4737,N,03806.7969,E,12.3,40,010416,,*0A
$GPRMC,001123,A,5537.4697,N,03806.7862,E,26.6,236.1,010416,,*24
$GPRMC,001124,A,5537.4748,N,03806.7955,E,26.7,45.9,010416,,*1A
$GPRMC,001125,A,5537.4757,N,03806.7957,E,3.4,6,010416,,*03
$GPRMC,001126,A,5537.474,N,03806.7901,E,13,241.3,010416,,*02
$GPRMC,001127,A,5537.4737,N,03806.7877,E,5.1,258.1,010416,,*11
$GPRMC,001128,A,5537.4732,N,03806.7848,E,6.3,252.7,010416,,*1A
$GPRMC,001129,A,5537.4767,N,03806.7907,E,17.8,43.2,010416,,*1D
$GPRMC,001130,A,5537.4744,N,03806.7838,E,16.8,238.8,010416,,*2C
$GPRMC,001131,A,5537.4757,N,03806.7849,E,5.4,24.7,010416,,*27
$GPRMC,001132,A,5537.4804,N,03806.7932,E,24.4,45.1,010416,,*12
$GPRMC,001133,A,5537.4777,N,03806.7856,E,18.7,237.8,010416,,*29
$GPRMC,001134,A,5537.4794,N,03806.7875,E,7.4,32.1,010416,,*21
$GPRMC,001135,A,5537.4801,N,03806.7872,E,2.7,348.7,010416,,*1A
$GPRMC,001136,A,5537.4817,N,03806.789,E,7.1,31,010416,,*05
$GPRMC,001137,A,5537.4832,N,03806.7903,E,6.1,27.7,010416,,*27
$GPRMC,001138,A,5537.4797,N,03806.7811,E,23,236.2,010416,,*35
$GPRMC,001139,A,5537.4831,N,03806.7866,E,16.8,42.3,010416,,*17
$GPRMC,001140,A,5537.4853,N,03806.7895,E,10.1,36.7,010416,,*19
$GPRMC,001141,A,5537.4863,N,03806.7898,E,3.7,10.7,010416,,*26
$GPRMC,001142,A,5537.4846,N,03806.7845,E,12.6,240.8,010416,,*2B
$GPRMC,001143,A,5537.4873,N,03806.7884,E,12.8,39.5,010416,,*1E
$GPRMC,001144,A,5537.4875,N,03806.7869,E,3.2,278,010416,,*0A
$GPRMC,001145,A,5537.4867,N,03806.7835,E,7.6,247.9,010416,,*1A
$GPRMC,001146,A,5537.4867,N,03806.7818,E,3.6,270.8,010416,,*17
$GPRMC,001147,A,5537.4903,N,03806.7876,E,17.8,42.4,010416,,*19
$GPRMC,001148,A,5537.4892,N,03806.7836,E,9.2,244.7,010416,,*19
$GPRMC,001149,A,5537.4887,N,03806.7808,E,6,252.6,010416,,*04
$GPRMC,001150,A,5537.4895,N,03806.7808,E,3,358.7,010416,,*00
$GPRMC,001151,A,5537.4897,N,03806.7793,E,3,280.9,010416,,*04
$GPRMC,001152,A,5537.4905,N,03806.7793,E,3,357.7,010416,,*08
$GPRMC,001153,A,5537.4943,N,03806.7854,E,18.7,42.4,010416,,*18
$GPRMC,001154,A,5537.493,N,03806.781,E,10,243.1,010416,,*3C
$GPRMC,001155,A,5537.4944,N,03806.7821,E,5.4,23.8,010416,,*2F
$GPRMC,001156,A,5537.497,N,03806.7858,E,12.4,38.7,010416,,*26
$GPRMC,001157,A,5537.4977,N,03806.7854,E,2.5,341,010416,,*08
$GPRMC,001158,A,5537.4949,N,03806.7781,E,18.2,236.8,010416,,*26
$GPRMC,001159,A,5537.4958,N,03806.7781,E,3,359.2,010416,,*03
$GPRMC,001200,A,5537.496,N,03806.7769,E,2.7,290.5,010416,,*2A
$GPRMC,001201,A,5537.5003,N,03806.7839,E,21.3,43,010416,,*0E
$GPRMC,001202,A,5537.496,N,03806.7734,E,26.8,234.2,010416,,*10
$GPRMC,001203,A,5537.4982,N,03806.7761,E,9.7,35.3,010416,,*2D
$GPRMC,001204,A,5537.4997,N,03806.7776,E,6.6,28.5,010416,,*2C
$GPRMC,001205,A,5537.5002,N,03806.7768,E,2.3,315.5,010416,,*1A
$GPRMC,001206,A,5537.5008,N,03806.7764,E,2.5,341.8,010416,,*15
$GPRMC,001207,A,5537.4998,N,03806.7727,E,8.6,244.6,010416,,*11
$GPRMC,001208,A,5537.5022,N,03806.7758,E,10.9,36.7,010416,,*1F
$GPRMC,001209,A,5537.5048,N,03806.7794,E,11.9,37.7,010416,,*12
$GPRMC,001210,A,5537.5059,N,03806.7798,E,4,12.9,010416,,*3C
$GPRMC,001211,A,5537.503,N,03806.7724,E,18.5,236,010416,,*00
$GPRMC,001212,A,5537.5064,N,03806.7776,E,16.5,40.7,010416,,*11
$GPRMC,001213,A,5537.5061,N,03806.7752,E,5.1,255.6,010416,,*12
$GPRMC,001214,A,5537.509,N,03806.7792,E,13.5,38.8,010416,,*23
$GPRMC,001215,A,5537.5069,N,03806.7734,E,14.4,237.9,010416,,*22
$GPRMC,001216,A,5537.5085,N,03806.775,E,6.9,29.1,010416,,*1A
$GPRMC,001217,A,5537.509,N,03806.7742,E,2.3,314.5,010416,,*2B
$GPRMC,001218,A,5537.5113,N,03806.7771,E,10.3,35.5,010416,,*1D
$GPRMC,001219,A,5537.509,N,03806.7709,E,15.2,237.2,010416,,*1A
$GPRMC,001220,A,5537.5131,N,03806.7774,E,20.1,41.8,010416,,*1C
$GPRMC,001221,A,5537.51,N,03806.7695,E,19.8,235.1,010416,,*2A
$GPRMC,001222,A,5537.5141,N,03806.7759,E,20,41.7,010416,,*06
$GPRMC,001223,A,5537.5127,N,03806.7714,E,10.7,240.8,010416,,*28
$GPRMC,001224,A,5537.5128,N,03806.77,E,3,278.1,010416,,*0C
$GPRMC,001225,A,5537.5119,N,03806.7665,E,7.9,245.1,010416,,*10
$GPRMC,001226,A,5537.5124,N,03806.7659,E,2.3,329.7,010416,,*10
$GPRMC,001227,A,5537.5167,N,03806.7727,E,21,41.8,010416,,*00
$GPRMC,001228,A,5537.5176,N,03806.7729,E,3.4,5,010416,,*0D
$GPRMC,001229,A,5537.5183,N,03806.7725,E,2.6,346.1,010416,,*12
$GPRMC,001230,A,5537.5159,N,03806.7661,E,15.9,236.3,010416,,*21
$GPRMC,001231,A,5537.5172,N,03806.7672,E,5.4,22.7,010416,,*24
$GPRMC,001232,A,5537.5184,N,03806.7677,E,4.4,16.4,010416,,*2E
$GPRMC,001233,A,5537.5201,N,03806.7695,E,7.3,29.6,010416,,*27
$GPRMC,001234,A,5537.5226,N,03806.7727,E,11.2,35.9,010416,,*19
$GPRMC,001235,A,5537.5205,N,03806.767,E,14,237.2,010416,,*08
$GPRMC,001236,A,5537.5187,N,03806.7618,E,12.5,238.2,010416,,*2E
$GPRMC,001237,A,5537.5194,N,03806.7616,E,2.7,348.3,010416,,*17
$GPRMC,001238,A,5537.5254,N,03806.7715,E,30,43.2,010416,,*04
$GPRMC,001239,A,5537.525,N,03806.769,E,5.5,252.4,010416,,*14
$GPRMC,001240,A,5537.5249,N,03806.7672,E,3.6,267.1,010416,,*18
$GPRMC,001241,A,5537.5273,N,03806.7702,E,10.8,35.2,010416,,*1C
$GPRMC,001242,A,5537.525,N,03806.7641,E,15.1,236.2,010416,,*15
$GPRMC,001243,A,5537.526,N,03806.7643,E,3.5,6.7,010416,,*22
$GPRMC,001244,A,5537.5253,N,03806.7614,E,6.5,247.8,010416,,*1A
$GPRMC,001245,A,5537.5266,N,03806.7624,E,5.3,21.8,010416,,*29
$GPRMC,001246,A,5537.5267,N,03806.7608,E,3.2,273.1,010416,,*1E
$GPRMC,001247,A,5537.5297,N,03806.765,E,14.1,37.9,010416,,*22
$GPRMC,001248,A,5537.5282,N,03806.7605,E,10.9,239.3,010416,,*23
$GPRMC,001249,A,5537.5329,N,03806.7677,E,22.6,41.3,010416,,*14
$GPRMC,001250,A,5537.5322,N,03806.7648,E,6.6,247.5,010416,,*1F
$GPRMC,001251,A,5537.5303,N,03806.7597,E,12.5,237.5,010416,,*2D
$GPRMC,001252,A,5537.5316,N,03806.7605,E,5,19.7,010416,,*33
$GPRMC,001253,A,5537.5355,N,03806.7663,E,18.7,39.9,010416,,*1C
$GPRMC,001254,A,5537.5307,N,03806.7556,E,28.1,231.6,010416,,*29
$GPRMC,001255,A,5537.5353,N,03806.7626,E,22.1,41,010416,,*0A
$GPRMC,001256,A,5537.537,N,03806.7643,E,7.2,28.3,010416,,*1D
$GPRMC,001257,A,5537.5364,N,03806.7614,E,6.4,247.6,010416,,*12
$GPRMC,001258,A,5537.5357,N,03806.7585,E,6.5,247.4,010416,,*15
$GPRMC,001259,A,5537.5389,N,03806.7629,E,14.7,37.8,010416,,*1A
$GPRMC,001300,A,5537.536,N,03806.756,E,17.6,234.1,010416,,*24
$GPRMC,001301,A,5537.5381,N,03806.7582,E,8.7,31.6,010416,,*29
$GPRMC,001302,A,5537.5416,N,03806.7631,E,16.4,38.6,010416,,*1D
$GPRMC,001303,A,5537.5392,N,03806.7571,E,15.2,235.1,010416,,*2D
$GPRMC,001304,A,5537.5386,N,03806.7545,E,5.8,249.6,010416,,*1F
$GPRMC,001305,A,5537.5392,N,03806.754,E,2.4,337,010416,,*35
$GPRMC,001306,A,5537.5432,N,03806.7598,E,18.7,39.4,010416,,*11
$GPRMC,001307,A,5537.5437,N,03806.7591,E,2.3,326,010416,,*04
$GPRMC,001308,A,5537.5427,N,03806.7557,E,8,242.8,010416,,*02
$GPRMC,001309,A,5537.5451,N,03806.7585,E,10.5,33.8,010416,,*1B
$GPRMC,001310,A,5537.5422,N,03806.7515,E,18.1,233.4,010416,,*2C
$GPRMC,001311,A,5537.5464,N,03806.7577,E,20,39.7,010416,,*04
$GPRMC,001312,A,5537.5477,N,03806.7586,E,5.4,21.1,010416,,*29
$GPRMC,001313,A,5537.5487,N,03806.7588,E,3.5,6.1,010416,,*1B
$GPRMC,001314,A,5537.5479,N,03806.7558,E,6.8,245.7,010416,,*1B
$GPRMC,001315,A,5537.5501,N,03806.7582,E,9.2,31.8,010416,,*28
$GPRMC,001316,A,5537.5455,N,03806.7482,E,26.4,230.9,010416,,*23
$GPRMC,001317,A,5537.549,N,03806.753,E,16,37.8,010416,,*0E
$GPRMC,001318,A,5537.5483,N,03806.7501,E,6.5,246.3,010416,,*14
$GPRMC,001319,A,5537.5512,N,03806.754,E,13.6,36.3,010416,,*2B
$GPRMC,001320,A,5537.5533,N,03806.7561,E,8.7,30.8,010416,,*27
$GPRMC,001321,A,5537.5491,N,03806.747,E,24.1,231.1,010416,,*1C
$GPRMC,001322,A,5537.5537,N,03806.7537,E,21.6,39.7,010416,,*1E
$GPRMC,001323,A,5537.5535,N,03806.7519,E,3.8,262.1,010416,,*15
$GPRMC,001324,A,5537.5509,N,03806.7455,E,16.4,233.5,010416,,*2C
$GPRMC,001325,A,5537.5559,N,03806.753,E,24.1,40.2,010416,,*2F
$GPRMC,001326,A,5537.5539,N,03806.7478,E,13.1,235.5,010416,,*24
$GPRMC,001327,A,5537.5559,N,03806.7499,E,8.5,30.1,010416,,*21
$GPRMC,001328,A,5537.5551,N,03806.747,E,6.5,245.6,010416,,*28
$GPRMC,001329,A,5537.5564,N,03806.7476,E,4.7,16.6,010416,,*2D
$GPRMC,001330,A,5537.5596,N,03806.7519,E,14.7,36.6,010416,,*13
$GPRMC,001331,A,5537.5596,N,03806.7503,E,3.3,268.2,010416,,*16
$GPRMC,001332,A,5537.5603,N,03806.75,E,2.7,349.4,010416,,*18
$GPRMC,001333,A,5537.558,N,03806.7445,E,14.1,234.4,010416,,*1B
$GPRMC,001334,A,5537.5611,N,03806.7484,E,13.8,35.9,010416,,*1A
$GPRMC,001335,A,5537.5619,N,03806.7483,E,3,356.4,010416,,*08
$GPRMC,001336,A,5537.5605,N,03806.7443,E,9.6,238.6,010416,,*13
$GPRMC,001337,A,5537.5645,N,03806.7498,E,18.4,38.1,010416,,*17
$GPRMC,001338,A,5537.561,N,03806.7421,E,20.5,231.3,010416,,*19
$GPRMC,001339,A,5537.5648,N,03806.7472,E,17.4,37.6,010416,,*17
$GPRMC,001340,A,5537.5628,N,03806.7422,E,12.6,235.2,010416,,*29
$GPRMC,001341,A,5537.5652,N,03806.7448,E,10.3,32.3,010416,,*1A
$GPRMC,001342,A,5537.5634,N,03806.7402,E,11.5,236.1,010416,,*24
$GPRMC,001343,A,5537.5643,N,03806.7403,E,3.4,3.9,010416,,*1A
$GPRMC,001344,A,5537.568,N,03806.7453,E,16.9,37.2,010416,,*22
$GPRMC,001345,A,5537.57,N,03806.7472,E,8.3,29.1,010416,,*20
$GPRMC,001346,A,5537.5675,N,03806.7413,E,15.4,233.1,010416,,*25
$GPRMC,001347,A,5537.5692,N,03806.7429,E,7.2,26.6,010416,,*20
$GPRMC,001348,A,5537.5681,N,03806.7394,E,8.1,240.5,010416,,*11
$GPRMC,001349,A,5537.5688,N,03806.7391,E,2.5,342.4,010416,,*10
$GPRMC,001350,A,5537.5691,N,03806.7381,E,2.3,302.9,010416,,*1E
$GPRMC,001351,A,5537.5711,N,03806.7399,E,7.9,28.2,010416,,*20
$GPRMC,001352,A,5537.5734,N,03806.7425,E,10.2,31.8,010416,,*1B
$GPRMC,001353,A,5537.5749,N,03806.7436,E,5.8,21.5,010416,,*20
$GPRMC,001354,A,5537.5731,N,03806.739,E,11.5,235.5,010416,,*1C
$GPRMC,001355,A,5537.5738,N,03806.7387,E,2.8,350.3,010416,,*19
$GPRMC,001356,A,5537.5749,N,03806.739,E,3.8,8.7,010416,,*21
$GPRMC,001357,A,5537.573,N,03806.7342,E,12.1,234.8,010416,,*1A
$GPRMC,001358,A,5537.5773,N,03806.7401,E,19.9,37.8,010416,,*10
$GPRMC,001359,A,5537.5775,N,03806.739,E,2.4,290.1,010416,,*29
$GPRMC,001400,A,5537.5757,N,03806.7345,E,11.5,235.3,010416,,*24
$GPRMC,001401,A,5537.5805,N,03806.7411,E,22.1,38.3,010416,,*10
$GPRMC,001402,A,5537.5787,N,03806.7366,E,11.3,235.4,010416,,*2B
$GPRMC,001403,A,5537.5794,N,03806.7363,E,2.7,348.8,010416,,*1C
$GPRMC,001404,A,5537.5782,N,03806.7327,E,8.7,238.7,010416,,*1F
$GPRMC,001405,A,5537.5801,N,03806.7345,E,7.9,27.6,010416,,*22
$GPRMC,001406,A,5537.5816,N,03806.7355,E,5.7,21,010416,,*34
$GPRMC,001407,A,5537.5788,N,03806.7293,E,16.5,231.6,010416,,*2D
$GPRMC,001408,A,5537.5822,N,03806.7336,E,15.5,35.6,010416,,*16
$GPRMC,001409,A,5537.583,N,03806.7335,E,3,356.4,010416,,*3F
$GPRMC,001410,A,5537.5843,N,03806.7342,E,4.7,15.6,010416,,*2B
$GPRMC,001411,A,5537.5825,N,03806.7296,E,11.5,234.7,010416,,*24
$GPRMC,001412,A,5537.5839,N,03806.7305,E,5.5,19.9,010416,,*27
$GPRMC,001413,A,5537.5848,N,03806.7306,E,3.5,3.9,010416,,*1E
$GPRMC,001414,A,5537.5864,N,03806.7318,E,6.2,22.6,010416,,*26
$GPRMC,001415,A,5537.5846,N,03806.7273,E,11.5,234.6,010416,,*2F
$GPRMC,001416,A,5537.5887,N,03806.7328,E,19.1,36.8,010416,,*1C
$GPRMC,001417,A,5537.5901,N,03806.7335,E,5.1,17.7,010416,,*2F
$GPRMC,001418,A,5537.5861,N,03806.7255,E,22.1,229.1,010416,,*2C
$GPRMC,001419,A,5537.591,N,03806.7321,E,22.5,37.7,010416,,*27
$GPRMC,001420,A,5537.5911,N,03806.7308,E,2.7,279.1,010416,,*19
$GPRMC,001421,A,5537.588,N,03806.7243,E,17.5,230.5,010416,,*10
$GPRMC,001422,A,5537.5917,N,03806.7289,E,16.3,35.5,010416,,*1A
$GPRMC,001423,A,5537.594,N,03806.7313,E,10,30.4,010416,,*34
$GPRMC,001424,A,5537.5951,N,03806.7317,E,4.1,10.8,010416,,*23
$GPRMC,001425,A,5537.596,N,03806.7317,E,3.3,1.5,010416,,*28
$GPRMC,001426,A,5537.5918,N,03806.7233,E,23.5,228.4,010416,,*2F
$GPRMC,001427,A,5537.5941,N,03806.7256,E,9.7,30,010416,,*3A
$GPRMC,001428,A,5537.5923,N,03806.7212,E,11.3,234.2,010416,,*26
$GPRMC,001429,A,5537.5957,N,03806.7253,E,15.1,34.6,010416,,*11
$GPRMC,001430,A,5537.5951,N,03806.7229,E,5.3,247.1,010416,,*10
$GPRMC,001431,A,5537.5965,N,03806.7238,E,5.5,19.1,010416,,*29
$GPRMC,001432,A,5537.596,N,03806.7214,E,5.3,247.4,010416,,*2B
$GPRMC,001433,A,5537.5972,N,03806.722,E,4.7,14.8,010416,,*13
$GPRMC,001434,A,5537.5976,N,03806.7212,E,2.2,310,010416,,*03
$GPRMC,001435,A,5537.6013,N,03806.7259,E,16.8,35.2,010416,,*13
$GPRMC,001436,A,5537.5975,N,03806.7182,E,21.2,228.6,010416,,*2B
$GPRMC,001437,A,5537.6006,N,03806.7219,E,13.8,33.5,010416,,*15
$GPRMC,001438,A,5537.5999,N,03806.7192,E,6.3,242.9,010416,,*11
$GPRMC,001439,A,5537.6,N,03806.718,E,2.5,282.8,010416,,*16
$GPRMC,001440,A,5537.6013,N,03806.7185,E,4.7,14.7,010416,,*29
$GPRMC,001441,A,5537.6028,N,03806.7196,E,6,21.1,010416,,*39
$GPRMC,001442,A,5537.6017,N,03806.7164,E,7.6,239.1,010416,,*19
$GPRMC,001443,A,5537.6039,N,03806.7186,E,9.3,28.8,010416,,*28
$GPRMC,001444,A,5537.6082,N,03806.724,E,19.2,35.8,010416,,*2A
$GPRMC,001445,A,5537.6043,N,03806.7163,E,21.6,228.1,010416,,*2C
$GPRMC,001446,A,5537.6091,N,03806.7227,E,22.2,36.6,010416,,*1E
$GPRMC,001447,A,5537.6061,N,03806.7164,E,17.1,229.6,010416,,*2D
$GPRMC,001448,A,5537.6067,N,03806.7159,E,2.4,334.6,010416,,*16
$GPRMC,001449,A,5537.6112,N,03806.7217,E,20.5,36,010416,,*05
$GPRMC,001450,A,5537.6112,N,03806.7202,E,3.2,265.8,010416,,*1D
$GPRMC,001451,A,5537.6069,N,03806.7119,E,23.3,227.4,010416,,*21
$GPRMC,001452,A,5537.6085,N,03806.713,E,6.3,22,010416,,*01
$GPRMC,001453,A,5537.6094,N,03806.7131,E,3.5,2.9,010416,,*17
$GPRMC,001454,A,5537.6135,N,03806.7182,E,18.1,35,010416,,*0F
$GPRMC,001455,A,5537.6119,N,03806.7142,E,9.9,234.6,010416,,*1F
$GPRMC,001456,A,5537.6129,N,03806.7144,E,3.7,6.3,010416,,*1B
$GPRMC,001457,A,5537.6132,N,03806.7136,E,2.2,303.9,010416,,*1D
$GPRMC,001458,A,5537.616,N,03806.7165,E,11.7,31,010416,,*31
$GPRMC,001459,A,5537.6134,N,03806.711,E,14.8,230.2,010416,,*16
$GPRMC,001500,A,5537.6126,N,03806.7084,E,6.1,242.4,010416,,*1D
$GPRMC,001501,A,5537.6156,N,03806.7116,E,12.8,31.9,010416,,*16
$GPRMC,001502,A,5537.6151,N,03806.7095,E,4.7,249.3,010416,,*17
$GPRMC,001503,A,5537.6207,N,03806.7169,E,25.5,36.7,010416,,*1B
$GPRMC,001504,A,5537.619,N,03806.7127,E,10.7,233.3,010416,,*1C
$GPRMC,001505,A,5537.6168,N,03806.7079,E,12.7,231.3,010416,,*20
$GPRMC,001506,A,5537.6197,N,03806.711,E,12.4,31.4,010416,,*2B
$GPRMC,001507,A,5537.6178,N,03806.7068,E,11.1,232.7,010416,,*21
$GPRMC,001508,A,5537.6237,N,03806.7145,E,26.7,36.7,010416,,*1C
$GPRMC,001509,A,5537.6227,N,03806.7115,E,7.3,238.8,010416,,*1D
$GPRMC,001510,A,5537.6204,N,03806.7067,E,12.9,230.9,010416,,*27
$GPRMC,001511,A,5537.6234,N,03806.7099,E,12.7,31.4,010416,,*14
$GPRMC,001512,A,5537.6213,N,03806.7052,E,12.5,231.2,010416,,*23
$GPRMC,001513,A,5537.6236,N,03806.7075,E,10,28.7,010416,,*06
$GPRMC,001514,A,5537.6247,N,03806.7077,E,3.8,6.5,010416,,*1F
$GPRMC,001515,A,5537.6265,N,03806.7091,E,7.3,23.9,010416,,*22
$GPRMC,001516,A,5537.6283,N,03806.7105,E,7.3,23.8,010416,,*24
$GPRMC,001517,A,5537.6244,N,03806.7031,E,21.2,226.9,010416,,*2B
$GPRMC,001518,A,5537.6244,N,03806.7017,E,2.8,271.4,010416,,*14
$GPRMC,001519,A,5537.6269,N,03806.7042,E,10.5,29.1,010416,,*1E
$GPRMC,001520,A,5537.6312,N,03806.7094,E,19.1,34.4,010416,,*16
$GPRMC,001521,A,5537.627,N,03806.7015,E,22.4,226.4,010416,,*17
$GPRMC,001522,A,5537.6294,N,03806.7039,E,10.1,28.5,010416,,*19
$GPRMC,001523,A,5537.6294,N,03806.7025,E,2.8,271.8,010416,,*1C
$GPRMC,001524,A,5537.63,N,03806.702,E,2.3,329.1,010416,,*2C
$GPRMC,001525,A,5537.63,N,03806.7007,E,2.6,276.4,010416,,*13
$GPRMC,001526,A,5537.6333,N,03806.7042,E,13.9,31.7,010416,,*1C
$GPRMC,001527,A,5537.634,N,03806.704,E,2.8,350.3,010416,,*1A
$GPRMC,001528,A,5537.6334,N,03806.7018,E,5,245.9,010416,,*05
$GPRMC,001529,A,5537.6311,N,03806.6969,E,13.3,229.8,010416,,*2C
$GPRMC,001530,A,5537.6375,N,03806.7052,E,29.1,36.3,010416,,*1A
$GPRMC,001531,A,5537.6329,N,03806.6969,E,24,225.6,010416,,*35
$GPRMC,001532,A,5537.6364,N,03806.7007,E,15,32.2,010416,,*0D
$GPRMC,001533,A,5537.6368,N,03806.7001,E,2.2,319.9,010416,,*1D
$GPRMC,001534,A,5537.6342,N,03806.6947,E,14.7,228.7,010416,,*27
$GPRMC,001535,A,5537.6378,N,03806.6988,E,15.7,32.5,010416,,*16
$GPRMC,001536,A,5537.6412,N,03806.7026,E,14.9,32,010416,,*06
$GPRMC,001537,A,5537.6414,N,03806.7015,E,2.4,283.6,010416,,*1B
$GPRMC,001538,A,5537.6402,N,03806.6984,E,7.7,236.4,010416,,*19
$GPRMC,001539,A,5537.6428,N,03806.7009,E,10.8,28.7,010416,,*1A
$GPRMC,001540,A,5537.6393,N,03806.6942,E,18.9,226.6,010416,,*20
$GPRMC,001541,A,5537.6435,N,03806.6991,E,18.5,33.5,010416,,*1D
$GPRMC,001542,A,5537.6431,N,03806.6972,E,4.4,249.2,010416,,*13
$GPRMC,001543,A,5537.6452,N,03806.699,E,8.7,25.8,010416,,*16
$GPRMC,001544,A,5537.6461,N,03806.699,E,3.3,359.7,010416,,*29
$GPRMC,001545,A,5537.6428,N,03806.6927,E,17.7,226.9,010416,,*2F
$GPRMC,001546,A,5537.644,N,03806.6932,E,4.4,11.2,010416,,*1A
$GPRMC,001547,A,5537.6427,N,03806.6899,E,8.3,234.7,010416,,*11
$GPRMC,001548,A,5537.6457,N,03806.693,E,12.9,30.3,010416,,*28
$GPRMC,001549,A,5537.6468,N,03806.6932,E,3.9,6.9,010416,,*18
$GPRMC,001550,A,5537.6457,N,03806.6904,E,7.1,237.2,010416,,*1E
$GPRMC,001551,A,5537.6503,N,03806.6957,E,20.1,33.6,010416,,*1E
$GPRMC,001552,A,5537.6455,N,03806.6874,E,24.6,224.6,010416,,*28
$GPRMC,001553,A,5537.6476,N,03806.689,E,8.1,24.5,010416,,*1A
$GPRMC,001554,A,5537.6511,N,03806.6928,E,15.1,31.5,010416,,*17
$GPRMC,001555,A,5537.648,N,03806.687,E,16.4,227,010416,,*3B
$GPRMC,001556,A,5537.6493,N,03806.6876,E,4.9,14.1,010416,,*2F
$GPRMC,001557,A,5537.6541,N,03806.6933,E,21.1,33.7,010416,,*1C
$GPRMC,001558,A,5537.6511,N,03806.6876,E,15.9,227.1,010416,,*28
$GPRMC,001559,A,5537.6495,N,03806.6839,E,9.6,232.2,010416,,*1A
$GPRMC,001600,A,5537.6506,N,03806.6841,E,3.8,5.2,010416,,*13
$GPRMC,001601,A,5537.6522,N,03806.6851,E,6.2,19.5,010416,,*20
